[{"name":"WC PUBLICS","theme":"ENVIRONNEMENT","location":[0.338478371053854,46.57937427354032],"objectId":11146,"postCode":86000,"town":"POITIERS","address":"PARKING HOTEL DE VILLE"},{"name":"ARCHIVES MUNICIPALES","theme":"ADMINISTRATION","location":[0.309662225122298,46.563871256261095],"objectId":4,"postCode":86000,"town":"POITIERS","address":"158 RUE BLAISE PASCAL"},{"name":"WC PUBLICS","theme":"ENVIRONNEMENT","location":[0.341703741917628,46.58179660578182],"objectId":11147,"postCode":86000,"town":"POITIERS","address":null},{"name":"LES COURONNERIES FPA RENE CROZET","theme":"SANTE","location":[0.355853611497941,46.58772125757934],"objectId":130,"postCode":86000,"town":"POITIERS","address":"8 AVENUE GEORGES POMPIDOU"},{"name":"ECOLE ERNEST PEROCHON MATERNELLE et ELEMENTAIRE","theme":"SCOLAIRE","location":[0.318304878997334,46.56754429477371],"objectId":9,"postCode":86000,"town":"POITIERS","address":"24 RUE BLAISE PASCAL"},{"name":"CENTRE EQUESTRE MUNICIPAL","theme":"SPORT","location":[0.395113536066071,46.56723621169094],"objectId":14,"postCode":86550,"town":"MIGNALOUX BEAUVOIR","address":"1 ROUTE DE CHAUVIGNY"},{"name":"ECOLE SAINT EXUPERY","theme":"SCOLAIRE","location":[0.367881446298663,46.56669506483828],"objectId":19,"postCode":86000,"town":"POITIERS","address":"13 RUE EVARISTE GALLOIS"},{"name":"ECOLE BERT ELEMENTAIRE","theme":"SCOLAIRE","location":[0.340199312827096,46.58520249369712],"objectId":23,"postCode":86000,"town":"POITIERS","address":"2 RUE PAUL BERT"},{"name":"ECOLE PAUL FORT MATERNELLE","theme":"SCOLAIRE","location":[0.326259979952719,46.59209228189561],"objectId":28,"postCode":86000,"town":"POITIERS","address":"24 RUE RIQUE AVOINE"},{"name":"CENTRE DE GESTION DE LA FONCTION PUBLIQUE TERRITORIALE","theme":"ADMINISTRATION","location":[0.357969651963953,46.66199018957283],"objectId":58,"postCode":86962,"town":"CHASSENEUIL DU POITOU","address":"AVENUE RENE CASSIN CS 20205 FUTUROSCOPE"},{"name":"COMPLEXE SPORTIF ALIENOR AQUITAINE","theme":"SPORT","location":[0.366340215736555,46.59006952709887],"objectId":65,"postCode":86000,"town":"POITIERS","address":"29 RUE PIERRE DE COUBERTIN"},{"name":"COMPLEXE SPORTIF TOUFFENET","theme":"SPORT","location":[0.371868496821706,46.57990107651696],"objectId":70,"postCode":86000,"town":"POITIERS","address":"12 RUE SALVATOR ALLENDE"},{"name":"CANOE-KAYAK CHASSEIGNE","theme":"SPORT","location":[0.347423909102804,46.58940136716835],"objectId":75,"postCode":86000,"town":"POITIERS","address":"53 BOULEVARD CHASSEIGNE"},{"name":"HALLE DES SPORTS DE LA CASSETTE","theme":"SPORT","location":[0.31695995925603,46.57387245445338],"objectId":80,"postCode":86000,"town":"POITIERS","address":"39 ROUTE DE LA CASSETTE"},{"name":"SALLE DES FETES RUE DU CEDRE","theme":"CULTURE","location":[0.419767459898115,46.62199824066792],"objectId":84,"postCode":86360,"town":"MONTAMISE","address":"RUE DE CEDRE"},{"name":"SALLE GASCHET PORTEAU","theme":"CULTURE","location":[0.336513805296302,46.605346076194806],"objectId":89,"postCode":86000,"town":"POITIERS","address":"138 RUE DE LA GRANGE SAINT PIERRE"},{"name":"MAISON DES TROIS QUARTIERS","theme":"CULTURE","location":[0.342845223791016,46.589395360130425],"objectId":102,"postCode":86000,"town":"POITIERS","address":"23/25 RUE DU GENERAL SARRAIL"},{"name":"MUSEE SAINTE-CROIX","theme":"CULTURE","location":[0.348275122602553,46.57935031676022],"objectId":107,"postCode":86000,"town":"POITIERS","address":"3 bis RUE JEAN JAURES"},{"name":"ESPACE MENDES-FRANCE","theme":"CULTURE","location":[0.347738384835093,46.57998821441824],"objectId":113,"postCode":86038,"town":"POITIERS","address":"1 PLACE DE LA CATHEDRALE  CS 80964 POITIERS CEDEX"},{"name":"INSPECTION ACADEMIQUE","theme":"SCOLAIRE","location":[0.345491183276896,46.58764137604048],"objectId":119,"postCode":86022,"town":"POITIERS","address":"22 RUE GUILLAUME VII LE TROUBADOUR  - CS 40625 - 86022 Poitiers Cedex"},{"name":"STADE MADELEINE","theme":"SPORT","location":[0.328513358623073,46.57254003758483],"objectId":120,"postCode":86000,"town":"POITIERS","address":"1 AVENUE DE LA LIBERATION"},{"name":"ECOLE MATERNELLE DU BOURG","theme":"SCOLAIRE","location":[0.361979411308946,46.61292972947784],"objectId":125,"postCode":86180,"town":"BUXEROLLES","address":"17 RUE HIPPOLYTE VERON"},{"name":"JARDIN DE PUYGARREAU","theme":"ENVIRONNEMENT","location":[0.341925810624542,46.579952680213076],"objectId":5688,"postCode":86000,"town":"POITIERS","address":"Rue de Puygarreau"},{"name":"Ecole élémentaire Camille Demarçay","theme":"SCOLAIRE","location":[0.333341465255368,46.634752546882076],"objectId":13372,"postCode":86440,"town":"MIGNE AUXANCES","address":"8, rue Camille Demarçay"},{"name":"CRECHE BEL AIR LA BERGERIE","theme":"ENFANCE","location":[0.32722397410166,46.58872538674613],"objectId":1,"postCode":86000,"town":"POITIERS","address":"55 RUE JEAN MERMOZ"},{"name":"COMPLEXE SPORTIF SAINT NICOLAS","theme":"SPORT","location":[0.314306518226809,46.60369663345023],"objectId":2,"postCode":86000,"town":"POITIERS","address":"156 ROUTE DE PARTHENAY"},{"name":"PONT ACHARD CENTRE INCENDIE","theme":"ADMINISTRATION","location":[0.331692423101169,46.5792899365734],"objectId":3,"postCode":86000,"town":"POITIERS","address":"24 BOULEVARD PONT ACHARD"},{"name":"DECHETTERIE FONTAINE LE COMTE","theme":"ENVIRONNEMENT","location":[0.251967568430035,46.54013332945084],"objectId":5,"postCode":86240,"town":"FONTAINE LE COMTE","address":"ROUTE DE BERUGES"},{"name":"ECOLE BLET MATERNELLE et ELEMENTAIRE","theme":"SCOLAIRE","location":[0.343637818222052,46.57685892984758],"objectId":7,"postCode":86000,"town":"POITIERS","address":"24 BOULEVARD FRANCOIS ALBERT"},{"name":"ECOLE JACQUES BREL MATERNELLE et ELEMENTAIRE","theme":"SCOLAIRE","location":[0.349830221900595,46.566517970251304],"objectId":8,"postCode":86000,"town":"POITIERS","address":"13 RUE DU COMMERCE"},{"name":"ECOLE ALPHONSE DAUDET MATERNELLE et ELEMENTAIRE","theme":"SCOLAIRE","location":[0.364635326906748,46.59180194852756],"objectId":10,"postCode":86000,"town":"POITIERS","address":"23 RUE HENRI DUNANT"},{"name":"ECOLE LA LICORNE MATERNELLE","theme":"SCOLAIRE","location":[0.380631326459033,46.57463971546114],"objectId":11,"postCode":86000,"town":"POITIERS","address":"17 ALLEE DE LA VIREVOLIERE"},{"name":"ECOLE COLIGNY-CORNET","theme":"SCOLAIRE","location":[0.354624252559243,46.57756922378439],"objectId":12,"postCode":86000,"town":"POITIERS","address":"97 BIS RUE CORNET"},{"name":"ECOLE CHARLES PERRAULT MATERNELLE et ELEMENTAIRE","theme":"SCOLAIRE","location":[0.353759834774336,46.58829758799708],"objectId":13,"postCode":86000,"town":"POITIERS","address":"7 AVENUE GEORGES POMPIDOU"},{"name":"ECOLE PASTEUR MATERNELLE","theme":"SCOLAIRE","location":[0.352812162084829,46.575876023868624],"objectId":15,"postCode":86000,"town":"POITIERS","address":"15 RUE LOUIS PASTEUR"},{"name":"ECOLE EVARISTE GALLOIS","theme":"SCOLAIRE","location":[0.367896823580844,46.56753402959195],"objectId":16,"postCode":86000,"town":"POITIERS","address":"11 RUE EVARISTE GALLOIS"},{"name":"ECOLE PABLO NERUDA MATERNELLE et ELEMENTAIRE","theme":"SCOLAIRE","location":[0.378331210775117,46.59062130239014],"objectId":17,"postCode":86000,"town":"POITIERS","address":"73 RUE D'ELINCOURT"},{"name":"ECOLE GEORGES BRASSENS MATERNELLE et ELEMENTAIRE","theme":"SCOLAIRE","location":[0.38988817131512,46.57192488601135],"objectId":18,"postCode":86000,"town":"POITIERS","address":"19 RUE DE LA RAUDIERE"},{"name":"ECOLE BREUIL MINGOT MATERNELLE et ELEMENTAIRE","theme":"SCOLAIRE","location":[0.405825823641542,46.58904655649774],"objectId":20,"postCode":86000,"town":"POITIERS","address":"6 RUE DE LA GIREE"},{"name":"ECOLE ANDERSEN MATERNELLE et ELEMENTAIRE","theme":"SCOLAIRE","location":[0.359430073660903,46.59222952489623],"objectId":21,"postCode":86000,"town":"POITIERS","address":"6 RUE DU FIEF DES HAUSSES"},{"name":"MATERNELLE CONDORCET","theme":"SCOLAIRE","location":[0.333903733032463,46.59127626936247],"objectId":22,"postCode":86000,"town":"POITIERS","address":"67 RUE CONDORCET"},{"name":"ECOLE ELEMENTAIRE MONTMIDI","theme":"SCOLAIRE","location":[0.323733651478125,46.57999490489655],"objectId":24,"postCode":86000,"town":"POITIERS","address":"24 RUE DE MONTMIDI"},{"name":"ECOLE GRANGE SAINT PIERRE MATERNELLE et ELEMENTAIRE","theme":"SCOLAIRE","location":[0.332564104304948,46.598548520745595],"objectId":25,"postCode":86000,"town":"POITIERS","address":"24 RUE OLIVIER DE SERRES"},{"name":"ECOLE RENAUDOT MATERNELLE","theme":"SCOLAIRE","location":[0.334939973911896,46.577777056184814],"objectId":26,"postCode":86000,"town":"POITIERS","address":"69 RUE THEOPHRASTE RENAUDOT"},{"name":"ECOLE PORTE DE PARIS MATERNELLE","theme":"SCOLAIRE","location":[0.340642988301726,46.591100092497605],"objectId":27,"postCode":86000,"town":"POITIERS","address":"5 RUE DE L'INTENDANT LE NAIN"},{"name":"ECOLE LES MINIMES MATERNELLE","theme":"SCOLAIRE","location":[0.348019554407601,46.5826577052804],"objectId":29,"postCode":86000,"town":"POITIERS","address":"116 GRAND RUE"},{"name":"FPA MONTMIDI","theme":"SANTE","location":[0.325508851383824,46.58006346564846],"objectId":30,"postCode":86000,"town":"POITIERS","address":"1 RUE DE MONTMIDI"},{"name":"COMPLEXE SPORTIF MONTMIDI","theme":"SPORT","location":[0.31765607515292,46.57703295456021],"objectId":135,"postCode":86000,"town":"POITIERS","address":"3 RUE SANTOS DUMONT"},{"name":"MAIRIE DE SAINT-BENOIT","theme":"ADMINISTRATION","location":[0.340050620122461,46.549541455869836],"objectId":236,"postCode":86281,"town":"SAINT BENOIT","address":"11 RUE PAUL GAUVIN - BP 1 CEDEX"},{"name":"Toilettes publiques","theme":"ENVIRONNEMENT","location":[0.311134857770656,46.62662233764557],"objectId":14024,"postCode":86440,"town":"MIGNE AUXANCES","address":"Place de l'église"},{"name":"Terrain vert dit \"Des Chilloux\"","theme":"ENVIRONNEMENT","location":[0.277234127011152,46.62601824824187],"objectId":14665,"postCode":86440,"town":"MIGNE AUXANCES","address":"Allée des Chails"},{"name":"Stade André et Pierre JARASSON","theme":"SPORT","location":[0.30923416959468,46.61951032385875],"objectId":348,"postCode":86440,"town":"MIGNE AUXANCES","address":"rue de Poitiers"},{"name":"Salle de sports de raquettes","theme":"SPORT","location":[0.310633229293462,46.6198905507723],"objectId":14025,"postCode":86440,"town":"MIGNE AUXANCES","address":"61, rue de Poitiers"},{"name":"Cimetière des \"Sous Remuets\"","theme":"ENVIRONNEMENT","location":[0.320060848383891,46.626883649429445],"objectId":14658,"postCode":86440,"town":"MIGNE AUXANCES","address":"rue de Giroir"},{"name":"Cimetière nouveau","theme":"ENVIRONNEMENT","location":[0.315470615100724,46.620181671215555],"objectId":14671,"postCode":86440,"town":"MIGNE AUXANCES","address":"rue du Centre"},{"name":"PATINOIRE","theme":"SPORT","location":[0.370123462643918,46.569934337441524],"objectId":128,"postCode":86000,"town":"POITIERS","address":"56 RUE JACQUES COEUR"},{"name":"ECOLE SAINTE MARIE","theme":"SCOLAIRE","location":[0.350628113379741,46.58126974395434],"objectId":2488,"postCode":86000,"town":"POITIERS","address":"9, RUE BARBATTE"},{"name":"COLLEGE PIERRE RONSARD","theme":"SCOLAIRE","location":[0.350136927755285,46.569283845012805],"objectId":2489,"postCode":86000,"town":"POITIERS","address":"50 RUE DE LA JAMBE A L'ANE"},{"name":"LYCEE DU BOIS D'AMOUR","theme":"SCOLAIRE","location":[0.309766409591265,46.550655895159395],"objectId":2490,"postCode":86000,"town":"POITIERS","address":"9, RUE DE LA GARENNE"},{"name":"BIBLIOTHEQUE DEPARTEMENTALE DE LA VIENNE","theme":"CULTURE","location":[0.367360737016434,46.57753474798028],"objectId":2491,"postCode":86000,"town":"POITIERS","address":"64, RUE DU DOLMEN"},{"name":"CRECHE LES PETITS CALINS","theme":"ENFANCE","location":[0.3671784757517,46.64839635750753],"objectId":2492,"postCode":86360,"town":"CHASSENEUIL DU POITOU","address":"18, rue des écoles"},{"name":"MEDIATHEQUE","theme":"CULTURE","location":[0.374542076746689,46.649879510618725],"objectId":2493,"postCode":86360,"town":"CHASSENEUIL DU POITOU","address":"8 RUE DE L'EGLISE"},{"name":"MAIRIE MIGNE-AUXANCES","theme":"ADMINISTRATION","location":[0.309712731970924,46.627434500291436],"objectId":446,"postCode":86440,"town":"MIGNE AUXANCES","address":"1, rue du 8 mai 1945"},{"name":"CNFPT (CENTRE NATIONAL DE LA FONCTION PUBLIQUE TERRITORIALE)","theme":"ADMINISTRATION","location":[0.336208646009275,46.584624649732326],"objectId":447,"postCode":86000,"town":"POITIERS","address":"50 BOULEVARD DU GRAND CERF BP 30384"},{"name":"PONT NEUF OPAH","theme":"ADMINISTRATION","location":[0.355665107506039,46.57404566328534],"objectId":448,"postCode":86000,"town":"POITIERS","address":"108 RUE DU FAUBOURG DU PONT NEUF"},{"name":"CENTRE D'ANIMATION DE POITIERS SUD","theme":"CULTURE","location":[0.312473384824417,46.56600992003728],"objectId":449,"postCode":86000,"town":"POITIERS","address":"20 RUE DE LA JEUNESSE"},{"name":"MARCHE DE VOUNEUIL SOUS BIARD","theme":"ENVIRONNEMENT","location":[0.277292944111959,46.605839919298354],"objectId":450,"postCode":86580,"town":"VOUNEUIL SOUS BIARD","address":"RUE DE L'EGLISE SAINT JOSEPH  POUZIOUX LA JARRIE"},{"name":"PISCINE DE LA BLAISERIE","theme":"SPORT","location":[0.326388365034603,46.59307558041644],"objectId":451,"postCode":86000,"town":"POITIERS","address":"RUE DIEUDONNE COSTES"},{"name":"MAISON DE QUARTIER SAINT-ELOI VIVRE ENSEMBLE ","theme":"CULTURE","location":[0.379520263661535,46.5899181738247],"objectId":452,"postCode":86000,"town":"POITIERS","address":"11 BOULEVARD SAINT JUST"},{"name":"PLAINE DE BEAULIEU","theme":"ENVIRONNEMENT","location":[0.38398412028472,46.57239149172442],"objectId":453,"postCode":86000,"town":"POITIERS","address":"BOULEVARD RENE CASSIN"},{"name":"ECOLE ELEMENTAIRE DAMIEN ALLARD","theme":"SCOLAIRE","location":[0.331484963311798,46.575693436628804],"objectId":454,"postCode":86000,"town":"POITIERS","address":"11 RUE JULES FERRY"},{"name":"MAIRIE DE CROUTELLE","theme":"ADMINISTRATION","location":[0.2870704345108,46.53566157559171],"objectId":456,"postCode":86240,"town":"CROUTELLE","address":"33 GRAND'RUE"},{"name":"POLE EMPLOI (ASSEDIC)","theme":"ADMINISTRATION","location":[0.343275293020749,46.559759789070256],"objectId":457,"postCode":86281,"town":"SAINT BENOIT","address":"2 ALLEE DE LA CALYSPO - CS 30014\n86281 Saint-Benoît Cedex"},{"name":"COLLEGE JEAN MOULIN","theme":"SCOLAIRE","location":[0.371547033387832,46.58095183947898],"objectId":458,"postCode":86000,"town":"POITIERS","address":"8 RUE SALVADOR ALLENDE"},{"name":"COLLEGE F. BLOCH-SERAZIN","theme":"SCOLAIRE","location":[0.385896550619076,46.57189792721564],"objectId":459,"postCode":86000,"town":"POITIERS","address":"10 RUE DE VALENCAY"},{"name":"COLLEGE THEOPHRASTE RENAUDOT","theme":"SCOLAIRE","location":[0.32049456227358,46.55093805483031],"objectId":461,"postCode":86280,"town":"SAINT BENOIT","address":"100 ROUTE DE LIGUGE"},{"name":"MAIRIE DE BUXEROLLES","theme":"ADMINISTRATION","location":[0.352921827050181,46.598318113123156],"objectId":463,"postCode":86180,"town":"BUXEROLLES","address":"12 RUE DE L'HOTEL DE VILLE - BP 9"},{"name":"LYCEE KYOTO","theme":"SCOLAIRE","location":[0.383305057120957,46.58963372125762],"objectId":464,"postCode":86000,"town":"POITIERS","address":"26 AVENUE DE LA FRATERNITE"},{"name":"MAIRIE DE POITIERS RIVAUD","theme":"ADMINISTRATION","location":[0.338163132190227,46.5765153157601],"objectId":465,"postCode":86000,"town":"POITIERS","address":"1 RUE DU CHANOINE DURET"},{"name":"PARKING BLOSSAC","theme":"TRANSPORT_STATIONNEMENT","location":[0.338207803954051,46.57606062961971],"objectId":466,"postCode":86000,"town":"POITIERS","address":"20 PLACE HENRI BARBUSSE"},{"name":"A.F.P.A.","theme":"ADMINISTRATION","location":[0.354261397570163,46.56357955938531],"objectId":468,"postCode":86280,"town":"SAINT BENOIT","address":"RUE PANIER VERT"},{"name":"UNIVERSITE IUT GEA","theme":"SCOLAIRE","location":[0.348647947608464,46.58297527717922],"objectId":469,"postCode":86000,"town":"POITIERS","address":"8 RUE DES CARMES"},{"name":"HOTEL FUME","theme":"PATRIMOINE","location":[0.342058093846881,46.585657180614795],"objectId":470,"postCode":86000,"town":"POITIERS","address":"8 RUE DESCARTES"},{"name":"UNIVERSITE CEAT","theme":"SCOLAIRE","location":[0.314367182720879,46.58664539645971],"objectId":472,"postCode":86000,"town":"POITIERS","address":"43 ROUTE DE L'AERODROME"},{"name":"INSTITUTION DE LARNAY","theme":"SOCIAL","location":[0.302164884160415,46.59654738871869],"objectId":473,"postCode":86580,"town":"BIARD","address":"LARNAY"},{"name":"DECHETTERIE VOUNEUIL SOUS BIARD","theme":"ENVIRONNEMENT","location":[0.273452649027917,46.57865796911817],"objectId":12408,"postCode":86297,"town":"VOUNEUIL SOUS BIARD","address":"AVENUE CAMILLE HABLIZIG"},{"name":"DECHETTERIE BOIS D'AMOUR","theme":"ENVIRONNEMENT","location":[0.307514011765887,46.55035921635105],"objectId":6,"postCode":86000,"town":"POITIERS","address":"1 RUE DE LA GARENNE"},{"name":"DECHETTERIE LIGUGE","theme":"ENVIRONNEMENT","location":[0.314875085525481,46.51928925543852],"objectId":12409,"postCode":86133,"town":"LIGUGE","address":"ZA LES ERONDIERES"},{"name":"EGLISE SAINT-PAUL","theme":"PATRIMOINE","location":[0.345942089557853,46.5812546408846],"objectId":31,"postCode":86000,"town":"POITIERS","address":"174 RUE DU FAUBOURG DU PONT NEUF"},{"name":"CENTRE SOCIOCULTUREL DE LA BLAISERIE","theme":"CULTURE","location":[0.321518007411925,46.591917762438406],"objectId":33,"postCode":86000,"town":"POITIERS","address":"RUE DES FRERES MONTGOLFIERS"},{"name":"PARC DES PRES MIGNONS","theme":"ENVIRONNEMENT","location":[0.313615843448548,46.56349274877079],"objectId":34,"postCode":86000,"town":"POITIERS","address":"RUE BLAISE PASCAL"},{"name":"C.R.E.A.H.I (CENTRE REGIONAL ETUDE ACTION POUR HANDICAPS ET INSERTION)","theme":"SOCIAL","location":[0.350616945448485,46.58479796321624],"objectId":35,"postCode":86000,"town":"POITIERS","address":"3 RUE GEORGES SERVANT"},{"name":"HYPOGEE DES DUNES","theme":"PATRIMOINE","location":[0.359226168956627,46.575543000472514],"objectId":36,"postCode":86000,"town":"POITIERS","address":"101 RUE DU PERE DE LA CROIX"},{"name":"DOMAINE UNIVERSITAIRE HALLE DE TENNIS","theme":"SPORT","location":[0.376085554084866,46.5691507481837],"objectId":37,"postCode":86000,"town":"POITIERS","address":"2 RUE DE LA DEVINIERE"},{"name":"JARDIN DES PLANTES","theme":"ENVIRONNEMENT","location":[0.347841598082472,46.58746462440557],"objectId":38,"postCode":86000,"town":"POITIERS","address":"RUE DU JARDIN DES PLANTES"},{"name":"ECOLE ELEMENTAIRE JULES FERRY","theme":"SCOLAIRE","location":[0.3298300641617,46.57501279935153],"objectId":40,"postCode":86000,"town":"POITIERS","address":"11 RUE JULES FERRY"},{"name":"MAISON DES SERVICES PUBLICS DE POITIERS SUD","theme":"ADMINISTRATION","location":[0.313173398717172,46.56606595795697],"objectId":41,"postCode":86000,"town":"POITIERS","address":"8 RUE DE LA JEUNESSE"},{"name":"COMPLEXE SPORTIF DUNES","theme":"SPORT","location":[0.358261211021034,46.578238908084465],"objectId":42,"postCode":86000,"town":"POITIERS","address":"1 CASERNE ABOVILLE"},{"name":"ECOLE MICROMEGAS MATERNELLE et ELEMENTAIRE","theme":"SCOLAIRE","location":[0.378308800044713,46.58562126636214],"objectId":43,"postCode":86000,"town":"POITIERS","address":"4 - 6  RUE FRANCOIS VOLTAIRE"},{"name":"COMPLEXE SPORTIF QUEBEC","theme":"SPORT","location":[0.352295052499804,46.593115097191195],"objectId":46,"postCode":86000,"town":"POITIERS","address":"26 RUE DES DEUX COMMUNES "},{"name":"WC PUBLICS","theme":"ENVIRONNEMENT","location":[0.340296260889854,46.57314294518226],"objectId":47,"postCode":86000,"town":"POITIERS","address":"1 PROMENADE DES COURS"},{"name":"GOLF CHALONS","theme":"SPORT","location":[0.381264798265079,46.5800590044321],"objectId":48,"postCode":86000,"town":"POITIERS","address":"24 AVENUE DE NORTHAMPTON"},{"name":"STADE BLAISERIE","theme":"SPORT","location":[0.324845541281542,46.593416635576524],"objectId":49,"postCode":86000,"town":"POITIERS","address":"1 RUE DIENDONNEE COSTE"},{"name":"STADE JEAN-LUC GABOREAU","theme":"SPORT","location":[0.339039049488458,46.56284291562488],"objectId":50,"postCode":86000,"town":"POITIERS","address":"RUE DE LA PIQUETTERIE"},{"name":"COMPLEXE SPORTIF ECLUZELLES CHASSENEUIL","theme":"SPORT","location":[0.377760806021782,46.657490156404215],"objectId":51,"postCode":86360,"town":"CHASSENEUIL DU POITOU","address":"RUE DU STADE"},{"name":"TOUR DU CORDIER ","theme":"PATRIMOINE","location":[0.340310692488446,46.590352128838624],"objectId":52,"postCode":86000,"town":"POITIERS","address":"PLACE JEAN DE BERRY"},{"name":"TROUBADOUR GYMNASE PAGANEL","theme":"SPORT","location":[0.346189189809252,46.58840042468369],"objectId":53,"postCode":86000,"town":"POITIERS","address":"1 RUE GUILLAUME VII LE TROUBADOUR"},{"name":"STADE MARCEL GUERIN","theme":"SPORT","location":[0.308129401748078,46.57843042319355],"objectId":54,"postCode":86580,"town":"BIARD","address":"RUE NUNGESSER"},{"name":"ENSEMBLE SCOLAIRE ISAAC DE L’ETOILE POLE LYCEE PROFESSIONNEL","theme":"SCOLAIRE","location":[0.33979653150011,46.60231599816954],"objectId":56,"postCode":86000,"town":"POITIERS","address":"62 rue du Porteau - CS 70019 - 86001 POITIERS CEDEX"},{"name":"BASE DE LOISIR DE ST CYR","theme":"SPORT","location":[0.457292836545693,46.722425544641766],"objectId":57,"postCode":86130,"town":"SAINT CYR","address":"PARC DE ST CYR"},{"name":"CHAMBRE DE COMMERCE ET DE L'INDUSTRIE","theme":"ADMINISTRATION","location":[0.363911512961035,46.656693178607895],"objectId":59,"postCode":86961,"town":"CHASSENEUIL DU POITOU","address":"7 AVENUE DU TOUR DE FRANCE TELEPORT 1 CS 50146 FUTUROSCOPE CEDEX"},{"name":"BOIS DE SAINT PIERRE","theme":"ENVIRONNEMENT","location":[0.372040958333879,46.50985076123866],"objectId":60,"postCode":86240,"town":"SMARVES","address":"SAINT PIERRE LES BOIS"},{"name":"Chapelle des Augustins - Canopé académique de Poitiers","theme":"CULTURE","location":[0.343556619364811,46.5786729972059],"objectId":11448,"postCode":86000,"town":"POITIERS","address":"6 rue Sainte-Catherine"},{"name":"DRDDI (DIRECTION REGIONALE DES DOUANES ET DES DROITS INDIRECTS)","theme":"ADMINISTRATION","location":[0.378307710538373,46.579769672650315],"objectId":168,"postCode":86020,"town":"POITIERS","address":"HOTEL DES DOUANES - 32 RUE SALVADOR ALLENDE"},{"name":"DRIRE (DIRECTION RÉGIONALE INDUSTRIE ET RECHERCHE)","theme":"ADMINISTRATION","location":[0.365816068918826,46.56256085058855],"objectId":10168,"postCode":86280,"town":"SAINT BENOIT","address":"1 allée des Anciennes Serres "},{"name":"CENTRE TECHNIQUE MUNICIPAL","theme":"ADMINISTRATION","location":[0.379680115594897,46.60307025231841],"objectId":475,"postCode":86180,"town":"BUXEROLLES","address":"13 RUE DES METIERS"},{"name":"ECOLE DU PLANTY","theme":"SCOLAIRE","location":[0.349986731019303,46.59729766876307],"objectId":476,"postCode":86180,"town":"BUXEROLLES","address":"2 RUE DES ECOLES"},{"name":"ECOLE DU BOURG","theme":"SCOLAIRE","location":[0.36201734691754,46.61217643516352],"objectId":477,"postCode":86180,"town":"BUXEROLLES","address":"2 RUE OMER BERNIER"},{"name":"GROUPE SCOLAIRE DES GROSEILLES","theme":"SCOLAIRE","location":[0.367408551284889,46.648217367899605],"objectId":478,"postCode":86360,"town":"CHASSENEUIL DU POITOU","address":"16 RUE DES ECOLES"},{"name":"MAIRIE DE QUARTIER DE COURONNERIES","theme":"ADMINISTRATION","location":[0.360718755844046,46.58858935064679],"objectId":481,"postCode":86000,"town":"POITIERS","address":"18 PLACE DE COIMBRA"},{"name":"CENTRE SOCIO CULTUREL DES TROIS CITES","theme":"CULTURE","location":[0.343839230979898,46.56559185825024],"objectId":482,"postCode":86000,"town":"POITIERS","address":"1 PLACE LEON JOUHAUX"},{"name":"SAINTE OPPORTUNE CURE EGLISE NOTRE DAME","theme":"PATRIMOINE","location":[0.344161251341809,46.58318701823367],"objectId":483,"postCode":86000,"town":"POITIERS","address":"16 RUE SAINTE OPPORTUNE"},{"name":"PARC DU TRIANGLE D'OR","theme":"ENVIRONNEMENT","location":[0.345589730170188,46.56423470696209],"objectId":484,"postCode":86000,"town":"POITIERS","address":"RUE JEAN DE LA FONTAINE"},{"name":"EGLISE SAINTE-RADEGONDE","theme":"PATRIMOINE","location":[0.351836894349819,46.57985952874583],"objectId":485,"postCode":86000,"town":"POITIERS","address":"RUE DU PIGEON BLANC"},{"name":"EGLISE SAINT-HILAIRE","theme":"PATRIMOINE","location":[0.332769524856882,46.57729929675271],"objectId":486,"postCode":86000,"town":"POITIERS","address":"RUE SAINT HILAIRE"},{"name":"EGLISE SAINT-JEAN-DE-MONTIERNEUF","theme":"PATRIMOINE","location":[0.345075800884886,46.589246856180196],"objectId":488,"postCode":86000,"town":"POITIERS","address":"PLACE MONTIERNEUF"},{"name":"GARE ROUTIERE","theme":"TRANSPORT_STATIONNEMENT","location":[0.334748598147725,46.58358897580148],"objectId":489,"postCode":86000,"town":"POITIERS","address":"52 Boulevard du Grand Cerf"},{"name":"PARKING CLOS DES CARMES","theme":"TRANSPORT_STATIONNEMENT","location":[0.348228876474557,46.58306731407799],"objectId":490,"postCode":86000,"town":"POITIERS","address":"1 RUE MONSEIGNEUR AUGOUARD"},{"name":"DOMAINE DE BEAUVOIR","theme":"ENVIRONNEMENT","location":[0.265521740660143,46.61111976556782],"objectId":491,"postCode":86580,"town":"VOUNEUIL SOUS BIARD","address":"CHEMIN DU PETIT BEAUVOIR"},{"name":"MSA DE LA VIENNE","theme":"ADMINISTRATION","location":[0.365578894740784,46.582634696427974],"objectId":492,"postCode":86000,"town":"POITIERS","address":"37 RUE DU TOUFFENETt"},{"name":"GROTTE DE LA NOREE","theme":"ENVIRONNEMENT","location":[0.302677957946243,46.57465773994069],"objectId":494,"postCode":86580,"town":"BIARD","address":"RUE DE L'ERMITAGE"},{"name":"MAISON DES PROJETS","theme":"CULTURE","location":[0.36230470528409,46.602424021307684],"objectId":495,"postCode":86180,"town":"BUXEROLLES","address":"48 RUE DE LA LIBERTE"},{"name":"COLLEGE HENRI IV","theme":"SCOLAIRE","location":[0.342240496240659,46.57896819653335],"objectId":496,"postCode":86000,"town":"POITIERS","address":"1 RUE LOUIS RENARD"},{"name":"HOTEL DE VILLE PUYGARREAU","theme":"ADMINISTRATION","location":[0.341969608028744,46.580130166854],"objectId":497,"postCode":86000,"town":"POITIERS","address":"11 RUE DU PUYGARREAU"},{"name":"ECHEVINAGE","theme":"PATRIMOINE","location":[0.340999797010209,46.58159094269577],"objectId":499,"postCode":86000,"town":"POITIERS","address":"7 RUE PAUL GUILLON"},{"name":"STADE DEMI-LUNE","theme":"SPORT","location":[0.330778764991161,46.60082004661183],"objectId":500,"postCode":86000,"town":"POITIERS","address":"1 RUE DE SALVERT"},{"name":"PARKING NOTRE DAME","theme":"TRANSPORT_STATIONNEMENT","location":[0.344919680688159,46.58364243604062],"objectId":501,"postCode":86000,"town":"POITIERS","address":"PLACE CHARLES DE GAULE"},{"name":"TIR A L'ARC JOURON MIGNALOUX BEAUVOIR","theme":"SPORT","location":[0.394597262159095,46.56532948326795],"objectId":503,"postCode":86550,"town":"MIGNALOUX BEAUVOIR","address":"ROUTE DE CHAUVIGNY"},{"name":"UNIVERSITE BEAU SITE","theme":"SCOLAIRE","location":[0.346605536216946,46.57300671640787],"objectId":504,"postCode":86000,"town":"POITIERS","address":"25 RUE DU FAUBOURG SAINT CYPRIEN"},{"name":"ECOLE SAINT HILAIRE","theme":"SCOLAIRE","location":[0.33310142161368,46.578049587711114],"objectId":1864,"postCode":86000,"town":"POITIERS","address":"12, RUE SAINT HILAIRE"},{"name":"POITIERS JEUNES","theme":"ENFANCE","location":[0.338387480918148,46.57984449522061],"objectId":140,"postCode":86000,"town":"POITIERS","address":"12 RUE CHARLES GIDE"},{"name":"MEDIATHEQUE DE MEDIASUD","theme":"CULTURE","location":[0.312031882955527,46.566403252391176],"objectId":145,"postCode":86000,"town":"POITIERS","address":"23 RUE DE LA JEUNESSE"},{"name":"OFFICE MUNICIPAL DES SPORTS","theme":"ADMINISTRATION","location":[0.345331463150164,46.583444239756915],"objectId":152,"postCode":86000,"town":"POITIERS","address":"22 PLACE CHARLES DE GAULLE"},{"name":"RICM","theme":"ADMINISTRATION","location":[0.325798793756793,46.585122303419624],"objectId":158,"postCode":86000,"town":"POITIERS","address":"QUARTIER LADMIRAULT BP679\n46 Bis rue Jean Mermoz"},{"name":"PIECE DES CARDS","theme":"ENVIRONNEMENT","location":[0.376977560969516,46.64685135764187],"objectId":163,"postCode":86960,"town":"CHASSENEUIL DU POITOU","address":"CHEMIN RURAL DIT DE L'ORMEAU"},{"name":"EGLISE","theme":"PATRIMOINE","location":[0.31142085754985,46.62647360860041],"objectId":167,"postCode":86440,"town":"MIGNE AUXANCES","address":"14, rue du Centre"},{"name":"BIBLIOTHEQUE \"BRIGITTE RAMEL\"","theme":"CULTURE","location":[0.266737578224447,46.533643620953555],"objectId":172,"postCode":86240,"town":"FONTAINE LE COMTE","address":"SALLE LES SORBIERS (SOUS SOL DU COMPLEXE CHATAIGNIER)"},{"name":"ABBAYE DE SAINT-BENOIT","theme":"PATRIMOINE","location":[0.341330731518753,46.549363527851455],"objectId":177,"postCode":86280,"town":"SAINT BENOIT","address":"RUE PAUL GAUVIN"},{"name":"BIBLIOTHEQUE MUNICIPALE","theme":"CULTURE","location":[0.305743099526388,46.57739224518934],"objectId":202,"postCode":86580,"town":"BIARD","address":"PLACE DE L'EGLISE"},{"name":"ESPACE 10 ZONE DE LA REPUBLIQUE","theme":"ADMINISTRATION","location":[0.338786324728631,46.61127651126362],"objectId":206,"postCode":86000,"town":"POITIERS","address":"17 RUE ALBIN HALLER"},{"name":"EGLISE NOTRE-DAME DU BOURG","theme":"PATRIMOINE","location":[0.273905713435641,46.57626158318033],"objectId":217,"postCode":86580,"town":"VOUNEUIL SOUS BIARD","address":"VOUNEUIL SOUS BIARD"},{"name":"CINEMA LE DIETRICH","theme":"CULTURE","location":[0.346589945839948,46.588754249741754],"objectId":222,"postCode":86000,"town":"POITIERS","address":"34 BOULEVARD CHASSEIGNE"},{"name":"MAIRIE CHASSENEUIL-DU-POITOU","theme":"ADMINISTRATION","location":[0.37494082370938,46.650592165763754],"objectId":227,"postCode":86360,"town":"CHASSENEUIL DU POITOU","address":"2 RUE DU 11 NOVEMBRE"},{"name":"LA HUNE","theme":"CULTURE","location":[0.343150195179276,46.558433694780675],"objectId":233,"postCode":86280,"town":"SAINT BENOIT","address":"1 AVENUE DU CHAMP DE LA CAILLE"},{"name":"CREPS","theme":"SPORT","location":[0.264357244773165,46.57924438842496],"objectId":242,"postCode":86580,"town":"VOUNEUIL SOUS BIARD","address":"Château de la Boivre"},{"name":"BIBLIOTHEQUE MUNICIPALE","theme":"CULTURE","location":[0.310085579198914,46.627449826016935],"objectId":248,"postCode":86440,"town":"MIGNE AUXANCES","address":"1, rue du 8 mai 1945"},{"name":"Ecole maternelle de la République","theme":"SCOLAIRE","location":[0.308504648324974,46.628283466813734],"objectId":252,"postCode":86440,"town":"MIGNE AUXANCES","address":"1, rue de la République"},{"name":"PLATEFORME INDUSTRIEL DE COURRIER \"LA POSTE\"","theme":"ADMINISTRATION","location":[0.31316376682128,46.61066336549922],"objectId":257,"postCode":86440,"town":"MIGNE AUXANCES","address":"70 RUE DES ENTREPRISES"},{"name":"RESTAURATION \"CUISINE CENTRALE\"","theme":"ADMINISTRATION","location":[0.307542718283872,46.61423873395654],"objectId":262,"postCode":86440,"town":"MIGNE AUXANCES","address":"rue de St Nicolas"},{"name":"SALLE LES MAGNALS","theme":"CULTURE","location":[0.412274312370721,46.54062872055979],"objectId":266,"postCode":86550,"town":"MIGNALOUX BEAUVOIR","address":"ALLEE DES MAGNALS"},{"name":"MAIRIE DE QUARTIER DES TROIS CITES","theme":"ADMINISTRATION","location":[0.343094963752392,46.56690082960956],"objectId":276,"postCode":86000,"town":"POITIERS","address":"10 PLACE DES TROIS CITES"},{"name":"COMPLEXE SPORTIF REBEILLEAU","theme":"SPORT","location":[0.373267056809041,46.57021641585477],"objectId":61,"postCode":86000,"town":"POITIERS","address":"53 AVENUE JACQUES COEUR"},{"name":"LES CASTORS BUXEROLLES","theme":"CULTURE","location":[0.351633915287384,46.59576886249602],"objectId":62,"postCode":86180,"town":"BUXEROLLES","address":"PLACE DES CASTORS"},{"name":"COMPLEXE SPORTIF ANDRE MESSY","theme":"SPORT","location":[0.358519844772642,46.5956871458912],"objectId":63,"postCode":86180,"town":"BUXEROLLES","address":"13 ALLEE ERIC TABARLY"},{"name":"GYMNASE ECOSSAIS","theme":"SPORT","location":[0.336593761355741,46.58112781170803],"objectId":64,"postCode":86000,"town":"POITIERS","address":"2 RUE DES ECOSSAIS"},{"name":"COMPLEXE SPORTIF BEAULIEU","theme":"SPORT","location":[0.385305407351747,46.57069392546387],"objectId":66,"postCode":86000,"town":"POITIERS","address":"10 RUE DE VALENCAY"},{"name":"ARTISTES BELLEJOUANNE","theme":"CULTURE","location":[0.31079806838825,46.56815750305721],"objectId":67,"postCode":86000,"town":"POITIERS","address":"25 RUE EDITH PIAF"},{"name":"GYMNASE BOIS D'AMOUR","theme":"SPORT","location":[0.312511408623899,46.55154512506012],"objectId":68,"postCode":86000,"town":"POITIERS","address":"LYCEE DU BOIS D'AMOUR 9 RUE DE LA GARENNE"},{"name":"COMPLEXE SPORTIF GRAND'MAISON","theme":"SPORT","location":[0.349602397831085,46.56896167607902],"objectId":69,"postCode":86000,"town":"POITIERS","address":"8 RUE PIERRE DE RONSARD"},{"name":"SAINT BENOIT COMPLEXE SPORTIF CHANTEJEAU","theme":"SPORT","location":[0.320440306322785,46.54936783754672],"objectId":71,"postCode":86280,"town":"SAINT BENOIT","address":"102 ROUTE DE LIGUGE"},{"name":"GYMNASE DOLMEN","theme":"SPORT","location":[0.367143306117892,46.578986118344226],"objectId":72,"postCode":86000,"town":"POITIERS","address":"73 RUE DU DOLMEN"},{"name":"ECOLE MATERNELLE CHARLES PERRAULT ","theme":"SCOLAIRE","location":[0.263403000205233,46.531465421902745],"objectId":73,"postCode":86240,"town":"FONTAINE LE COMTE","address":"4 RUE DU STADE"},{"name":"CARRE BLEU","theme":"CULTURE","location":[0.36137789316525,46.58994684582484],"objectId":77,"postCode":86000,"town":"POITIERS","address":"1 BIS RUE DE NIMEGUE"},{"name":"ESPACE BUS - VITALIS","theme":"TRANSPORT_STATIONNEMENT","location":[0.341180022835495,46.580947567162724],"objectId":78,"postCode":86000,"town":"POITIERS","address":"6 RUE DU CHAUDRON D'OR"},{"name":"CIMETIERE CHILVERT CIMETIERE","theme":"ENVIRONNEMENT","location":[0.320406410758493,46.57205199271164],"objectId":79,"postCode":86000,"town":"POITIERS","address":"21 RUE DE CHILVERT"},{"name":"LA PIERRE LEVEE CIMETIERE","theme":"ENVIRONNEMENT","location":[0.369300943212273,46.57404530515167],"objectId":81,"postCode":86000,"town":"POITIERS","address":"9 AVENUE DU RESTEUR PINEAU"},{"name":"CIMETIERE LA CUEILLE","theme":"ENVIRONNEMENT","location":[0.324112475751133,46.59582534195684],"objectId":82,"postCode":86000,"town":"POITIERS","address":"16 RUE DE LA BLAISERIE"},{"name":"CIMETIERE HOPITAL DES CHAMPS","theme":"ENVIRONNEMENT","location":[0.33884184212189,46.59351160883911],"objectId":83,"postCode":86000,"town":"POITIERS","address":"1 RUE AUBER"},{"name":"HALLE DES SPORTS MONTAMISE","theme":"SPORT","location":[0.419447796552574,46.62130578840621],"objectId":85,"postCode":86360,"town":"MONTAMISE","address":"RUE DE CEDRE"},{"name":"GYMNASE MONTMIDI","theme":"SPORT","location":[0.31897170322379,46.57675620775693],"objectId":86,"postCode":86000,"town":"POITIERS","address":"9 RUE DE LA TOURELLE"},{"name":"COMPLEXE SPORTIF BUGELLERIE","theme":"SPORT","location":[0.329844102228845,46.59955050913152],"objectId":87,"postCode":86000,"town":"POITIERS","address":"1 RUE DE LA BUGELLERIE"},{"name":"SALONS DE BLOSSAC","theme":"CULTURE","location":[0.334547687429918,46.57677935268896],"objectId":88,"postCode":86000,"town":"POITIERS","address":"9 RUE DE LA TRANCHEE"},{"name":"RECTORAT","theme":"ADMINISTRATION","location":[0.346053765874614,46.588063252207554],"objectId":90,"postCode":86000,"town":"POITIERS","address":"22 RUE GUILLAUME VII LE TROUBADOUR\nCS 40625 \n86022 Poitiers Cedex\t\n\n"},{"name":"MONTAMISE GYMNASE","theme":"SPORT","location":[0.427607068455843,46.6207027047198],"objectId":91,"postCode":86360,"town":"MONTAMISE","address":"RUE DE L'ANCIEN PORCHE"},{"name":"STADE REBEILLEAU","theme":"SPORT","location":[0.370718354639602,46.571223601733315],"objectId":505,"postCode":86000,"town":"POITIERS","address":"53 AVENUE JACQUES COEUR"},{"name":"LA POSTE, CROUTELLE","theme":"ADMINISTRATION","location":[0.287065737319002,46.53580082055224],"objectId":15928,"postCode":86240,"town":"CROUTELLE","address":null},{"name":"MAISON PETITE ENFANCE","theme":"ENFANCE","location":[0.208741646568096,46.56731047604661],"objectId":568,"postCode":86190,"town":"BERUGES","address":"1, IMPASSE DES COTEAUX"},{"name":"MARCHE ALPHONSE LEPETIT","theme":"ENVIRONNEMENT","location":[0.341575474966721,46.583242972145854],"objectId":282,"postCode":86000,"town":"POITIERS","address":"PLACE ALPHONSE LEPETIT"},{"name":"MARCHE DE BUXEROLLES","theme":"ENVIRONNEMENT","location":[0.351999724707673,46.596007638862375],"objectId":287,"postCode":86180,"town":"BUXEROLLES","address":"PLACE DES CASTORS"},{"name":"MARCHE DE MIGNE AUXANCES","theme":"ENVIRONNEMENT","location":[0.311433513975554,46.62673200723368],"objectId":291,"postCode":86440,"town":"MIGNE AUXANCES","address":"Place de l'église"},{"name":"ECOLE MATERNELLE","theme":"SCOLAIRE","location":[0.415355780084957,46.542292750995216],"objectId":297,"postCode":86550,"town":"MIGNALOUX BEAUVOIR","address":"185 ROUTE DE LA GARE"},{"name":"LA POSTE (LECLERC)","theme":"ADMINISTRATION","location":[0.358450783177,46.56639945771059],"objectId":302,"postCode":86000,"town":"POITIERS","address":"CENTRE COMMERCIAL LECLERC"},{"name":"GARE MIGNALOUX-BEAUVOIR","theme":"TRANSPORT_STATIONNEMENT","location":[0.411419840238657,46.52614806676695],"objectId":306,"postCode":86550,"town":"MIGNALOUX BEAUVOIR","address":"2500 ROUTE DE LA GARE"},{"name":"ECOLE PRIMAIRE IRMA JOUENNE","theme":"SCOLAIRE","location":[0.342631625531837,46.55304445135828],"objectId":311,"postCode":86280,"town":"SAINT BENOIT","address":"52 ROUTE DE POITIERS"},{"name":"GARE SNCF","theme":"TRANSPORT_STATIONNEMENT","location":[0.332970038274054,46.58202453807358],"objectId":316,"postCode":86000,"town":"POITIERS","address":"BOULEVARD DU GRAND CERF"},{"name":"LA POSTE, FONTAINE","theme":"ADMINISTRATION","location":[0.262417644877921,46.53128788521285],"objectId":320,"postCode":86240,"town":"FONTAINE LE COMTE","address":"12 ROUTE DE BERUGES"},{"name":"CRECHE FRIMOUSSE","theme":"ENFANCE","location":[0.343556073000861,46.56549876581886],"objectId":324,"postCode":86000,"town":"POITIERS","address":"7 RUE DE LA VALLEE MONNAIE"},{"name":"CRECHE BAMBI","theme":"ENFANCE","location":[0.378920053937906,46.574440757164865],"objectId":327,"postCode":86000,"town":"POITIERS","address":"ALLEE DE CHITREE"},{"name":"MONTIERNEUF CLSH M3Q","theme":"CULTURE","location":[0.341949969355533,46.589499628279],"objectId":332,"postCode":86000,"town":"POITIERS","address":"3 RUE GRIGNON DE MONTFORT"},{"name":"STADE SAINT ELOI","theme":"SPORT","location":[0.378107376375978,46.592214636237436],"objectId":336,"postCode":86000,"town":"POITIERS","address":"1 RUE DE L'ELORN"},{"name":"SDIS 86","theme":"ADMINISTRATION","location":[0.363530834374493,46.654768211820816],"objectId":342,"postCode":86360,"town":"CHASSENEUIL DU POITOU","address":"11 AVENUE GALILEE - BP 60120 - 86961 FUTUROSCOPE CHASSENEUIL Cedex"},{"name":"Halle des Sports","theme":"SPORT","location":[0.310253870156034,46.62039067999366],"objectId":347,"postCode":86440,"town":"MIGNE AUXANCES","address":"rue de Poitiers"},{"name":"SALLE DES ASSOCIATIONS","theme":"CULTURE","location":[0.421250455237682,46.62061014476577],"objectId":351,"postCode":86360,"town":"MONTAMISE","address":"13 PLACE DE LA MAIRIE"},{"name":"ESPACE PERISCOLAIRE","theme":"ENFANCE","location":[0.305165109716102,46.57795488162062],"objectId":365,"postCode":86580,"town":"BIARD","address":"29 RUE DES ECOLES"},{"name":"MAISON DE RETRAITE \"LE CLOS DES MYOSOTIS\"","theme":"SANTE","location":[0.41483446478806,46.53728125297616],"objectId":369,"postCode":86550,"town":"MIGNALOUX BEAUVOIR","address":"9 ALLEE DES MYOSOTIS"},{"name":"Centre socio-éducatif du Dc Pierre SAUMON","theme":"CULTURE","location":[0.311395943216902,46.626343277881574],"objectId":375,"postCode":86440,"town":"MIGNE AUXANCES","address":"14, rue du Centre"},{"name":"ECOLE MATERNELLE JEAN BORIAUD","theme":"SCOLAIRE","location":[0.304677291850758,46.57796607820635],"objectId":379,"postCode":86580,"town":"BIARD","address":"29 RUE DES ECOLES"},{"name":"BOULODROME COUVERT LOTI","theme":"SPORT","location":[0.306873914947341,46.56325888373743],"objectId":385,"postCode":86000,"town":"POITIERS","address":"5 RUE PIERRE LOTI"},{"name":"DIREN","theme":"ADMINISTRATION","location":[0.344556058400595,46.590253816849916],"objectId":402,"postCode":86000,"town":"POITIERS","address":"14 BOULEVARD CHASSEIGNE"},{"name":"SERVICE SOCIAL + MAIRIE DE QUARTIER","theme":"ADMINISTRATION","location":[0.360256960642891,46.58857174977341],"objectId":506,"postCode":86000,"town":"POITIERS","address":"11 RUE MARCEL PAUL"},{"name":"POLYCLINIQUE DE POITIERS","theme":"SANTE","location":[0.367318442653746,46.56442188494397],"objectId":507,"postCode":86000,"town":"POITIERS","address":"1 R PROVIDENCE"},{"name":"POLE MULTIMODAL","theme":"TRANSPORT_STATIONNEMENT","location":[0.334062464841936,46.58292251322621],"objectId":508,"postCode":86000,"town":"POITIERS","address":"52 BOULEVARD DU GRAND CERF"},{"name":"P.M.I (PROTECTION MATERNELLE INFANTILE)","theme":"SOCIAL","location":[0.351310213530513,46.59650010593066],"objectId":509,"postCode":86000,"town":"POITIERS","address":"4 RUE DES ECOLES"},{"name":"PARKING THEATRE AUDITORIUM","theme":"TRANSPORT_STATIONNEMENT","location":[0.337253591243033,46.583587076232405],"objectId":511,"postCode":86000,"town":"POITIERS","address":"1 BOULEVARD DE VERDUN"},{"name":"CLOS GAULTIER COMPLEXE SPORTIF","theme":"SPORT","location":[0.342571184113374,46.56418822296836],"objectId":512,"postCode":86000,"town":"POITIERS","address":"23 RUE DE LA VALLEE MONNAIE"},{"name":"DRASS (DIRECTION REGIONALE DES AFFAIRES SANITAIRES ET SOCIALES)","theme":"SOCIAL","location":[0.373751238041879,46.57815766905097],"objectId":514,"postCode":86000,"town":"POITIERS","address":"28 RUE GAY LUSSAC"},{"name":"LYCEE POLYVALENT REGIONAL VICTOR HUGO","theme":"SCOLAIRE","location":[0.337318751354079,46.5804090199247],"objectId":515,"postCode":86000,"town":"POITIERS","address":"10 RUE VICTOR HUGO"},{"name":"LYCEE CLASSIQUE ET MODERNE REGIONAL CAMILLE GUERIN","theme":"SCOLAIRE","location":[0.366315589906391,46.56870828564333],"objectId":516,"postCode":86000,"town":"POITIERS","address":"33 RUE GIBAUDERIE"},{"name":"ECOLE PETIT TOUR MATERNELLE","theme":"SCOLAIRE","location":[0.361844548670619,46.57214846913753],"objectId":517,"postCode":86000,"town":"POITIERS","address":"32 RUE DU PETIT TOUR"},{"name":"ECOLE JEAN MERMOZ MATERNELLE et ELEMENTAIRE","theme":"SCOLAIRE","location":[0.325209739732731,46.58896725361428],"objectId":518,"postCode":86000,"town":"POITIERS","address":"2 RUE DE LARNAY"},{"name":"ECOLE PRIVEE CATHOLIQUE \"L'EAU VIVE\"","theme":"SCOLAIRE","location":[0.313728015354663,46.6195552907017],"objectId":520,"postCode":86440,"town":"MIGNE AUXANCES","address":"56, rue du Centre"},{"name":"MAISON DE L'ARCHITECTURE","theme":"CULTURE","location":[0.335964735884716,46.57745634652358],"objectId":521,"postCode":86000,"town":"POITIERS","address":"1 RUE DE LA TRANCHEE"},{"name":"ECOLE CAMILLE DESMOULINS","theme":"SCOLAIRE","location":[0.276085284446347,46.57737429078923],"objectId":522,"postCode":86580,"town":"VOUNEUIL SOUS BIARD","address":"6 RUE DES CEDRES"},{"name":"PARC DE LA RIBAUDIERE","theme":"ENVIRONNEMENT","location":[0.376437374173973,46.6517611658856],"objectId":524,"postCode":86360,"town":"CHASSENEUIL DU POITOU","address":"10 RUE DU CHAMP DE FOIRE"},{"name":"PARC DE LA BOIVRE ","theme":"ENVIRONNEMENT","location":[0.27556394944339,46.579420349124014],"objectId":525,"postCode":86580,"town":"VOUNEUIL SOUS BIARD","address":"AVENUE CAMILLE HABLIZIG"},{"name":"MAIRIE DE POITIERS CTM","theme":"ADMINISTRATION","location":[0.342866817047527,46.61572886460942],"objectId":526,"postCode":86000,"town":"POITIERS","address":"10  RUE ANTOINE BECQUEREL"},{"name":"MAIRIE DE QUARTIER DE POITIERS SUD","theme":"ADMINISTRATION","location":[0.31241438799921,46.565951233400746],"objectId":528,"postCode":86000,"town":"POITIERS","address":"8 RUE DE LA JEUNESSE"},{"name":"LYCEE PROFESSIONNEL REGIONAL LOUIS ARMAND","theme":"SCOLAIRE","location":[0.329793326513513,46.59804158280204],"objectId":529,"postCode":86000,"town":"POITIERS","address":"65 RUE BUGELLERIE"},{"name":"LYCEE PROFESSIONNEL REGIONAL HOTELIER","theme":"SCOLAIRE","location":[0.365634916134228,46.58840104921138],"objectId":530,"postCode":86000,"town":"POITIERS","address":"41 RUE P DE COUBERTIN"},{"name":"HOPITAL GERIATRIQUE LOUIS PASTEUR","theme":"SANTE","location":[0.347043003828701,46.57453109730979],"objectId":532,"postCode":86000,"town":"POITIERS","address":"15 PONT SAINT CYPRIEN"},{"name":"DIRECTION DEPARTEMENTALE DES TERRITOIRES DE LA VIENNE ","theme":"ADMINISTRATION","location":[0.368679472731867,46.561020489146706],"objectId":533,"postCode":86000,"town":"POITIERS","address":"20 RUE DE LA PROVIDENCE"},{"name":"STADE CHALONS","theme":"SPORT","location":[0.38290976115138,46.58232965037713],"objectId":534,"postCode":86000,"town":"POITIERS","address":"AVENUE DE NORTHAMPTON"},{"name":"PETITE VILLETTE SQUARE","theme":"ENVIRONNEMENT","location":[0.342083620956517,46.59062998484353],"objectId":535,"postCode":86000,"town":"POITIERS","address":"1 BOULEVARD DE L'ABBE GEORGES FREMONT"},{"name":"DRJSCS + ARS","theme":"ADMINISTRATION","location":[0.385000923348967,46.582110792287715],"objectId":561,"postCode":86021,"town":"POITIERS","address":"4 RUE MICHEL OSTERMEYER \nBP 20570\n"},{"name":"MAISON DES ETUDIANTS","theme":"SCOLAIRE","location":[0.38650379891429,46.568704428240636],"objectId":244,"postCode":86022,"town":"POITIERS","address":"1, Rue N F Borges Bât A6 (BP 60282) 86007 Poitiers Cedex\n"},{"name":"CANOE-KAYAK SAINT BENOIT","theme":"SPORT","location":[0.334896203075529,46.55031896922791],"objectId":74,"postCode":86280,"town":"SAINT BENOIT","address":"AVENUE DE LORCH"},{"name":"MAISON DEPARTEMENTALE DE LA SOLIDARITE","theme":"SOCIAL","location":[0.345103355047095,46.588096198792584],"objectId":10488,"postCode":86000,"town":"POITIERS","address":"9 RUE GUILLAUME LE TROUBADOUR"},{"name":"TRESORERIE MUNICIPALE","theme":"ADMINISTRATION","location":[0.338651437981058,46.582970850280525],"objectId":407,"postCode":86000,"town":"POITIERS","address":"13 RUE DE LA MARNE"},{"name":"COMPLEXE SPORTIF DE MONTAMISE","theme":"SPORT","location":[0.422544416146766,46.61868857699276],"objectId":414,"postCode":86360,"town":"MONTAMISE","address":"PUITS DE LA VALLEE"},{"name":"BIBLIOTHEQUE","theme":"CULTURE","location":[0.352498797066672,46.59801637450452],"objectId":434,"postCode":86180,"town":"BUXEROLLES","address":"4  RUE MAURICE RAVEL"},{"name":"CENTRE HOSPITALIER UNIVERSITAIRE","theme":"SANTE","location":[0.384574873885915,46.559690128467814],"objectId":438,"postCode":86000,"town":"POITIERS","address":"2 RUE DE LA MILETRIE  86021 POITIERS CEDEX  BP 577"},{"name":"AMPHITHEATRE AUBARET","theme":"CULTURE","location":[0.345183668949157,46.5842992755201],"objectId":443,"postCode":86000,"town":"POITIERS","address":"FACULTE DE DROIT - \n15 RUE SAINT-OPPORTUNE 86022 POITIERS Cedex"},{"name":"MAIRIE DE MIGNALOUX-BEAUVOIR","theme":"ADMINISTRATION","location":[0.414196570312923,46.54111094696816],"objectId":455,"postCode":86550,"town":"MIGNALOUX BEAUVOIR","address":"268 ROUTE DE LA GARE"},{"name":"MAIRIE DE POITIERS ANNEXE TRAVERSE (HOTEL TUDER)","theme":"ADMINISTRATION","location":[0.33651844875278,46.579159032756394],"objectId":462,"postCode":86000,"town":"POITIERS","address":"53 RUE THEOPHRASTE RENAUDOT"},{"name":"CENTRE FORMATION APPRENTIS BATIMENT A.F.P.B.T.P VIENNE","theme":"SCOLAIRE","location":[0.316962730773676,46.54781842012615],"objectId":467,"postCode":86280,"town":"SAINT BENOIT","address":"3 RUE CHANTEJEAU"},{"name":"UNIVERSITE DE POITIERS","theme":"SCOLAIRE","location":[0.346305551974396,46.58553129466575],"objectId":471,"postCode":86000,"town":"POITIERS","address":"15 RUE HOTEL DIEU"},{"name":"CHAPELLE SAINT-LOUIS","theme":"PATRIMOINE","location":[0.341670223229371,46.57916543215935],"objectId":493,"postCode":86000,"town":"POITIERS","address":"COLLEGE HENRI  IV - 1 RUE LOUIS RENARD"},{"name":"STATION DES EAUX - BELLEJOUANNE","theme":"ENVIRONNEMENT","location":[0.315879810186053,46.565816403990354],"objectId":498,"postCode":86000,"town":"POITIERS","address":"84 RUE BLAISE PASCAL"},{"name":"CENTRE HOSPITALIER UNIVERSITAIRE DE POITIERS (CHU)","theme":"SANTE","location":[0.379415378697526,46.56093512037122],"objectId":502,"postCode":86000,"town":"POITIERS","address":"2 RUE DE LA MILETRIE"},{"name":"ASSISTANTE SOCIALE \"MAISON DE LA SOLIDARITE (U.T.I.S.S.)","theme":"SOCIAL","location":[0.274513276914428,46.52810259806203],"objectId":513,"postCode":86240,"town":"FONTAINE LE COMTE","address":"41 RUE DU VERCORS"},{"name":"ECOLE ELEMENTAIRE JEAN BORIAUD","theme":"SCOLAIRE","location":[0.304737296095938,46.578247543736666],"objectId":519,"postCode":86580,"town":"BIARD","address":"35 RUE DES ECOLES"},{"name":"ESPACE VERT DES BIZAIS","theme":"ENVIRONNEMENT","location":[0.360853025876521,46.60374458685163],"objectId":523,"postCode":86180,"town":"BUXEROLLES","address":"ROUTE DE L'ORMEAU"},{"name":"SSIT","theme":"ADMINISTRATION","location":[0.367147225465924,46.57910211801232],"objectId":527,"postCode":86000,"town":"POITIERS","address":"68 RUE DU DOLMEN"},{"name":"INSTITUT UNIVERSITAIRE DE TECHNOLOGIE (I.U.T)","theme":"SCOLAIRE","location":[0.386574990190543,46.562871347765096],"objectId":531,"postCode":86000,"town":"POITIERS","address":"6 ALLEE JEAN MONNET"},{"name":"CROUS RES ST-ELOI","theme":"SCOLAIRE","location":[0.376667225959088,46.58783986310449],"objectId":540,"postCode":86000,"town":"POITIERS","address":"19/21 RUE LE PELLETIER"},{"name":"COLLEGE UNION CHRETIENNE DE ST CHAUMONT","theme":"SCOLAIRE","location":[0.349916151545114,46.57980710581726],"objectId":544,"postCode":86000,"town":"POITIERS","address":"2 PLACE SAINTE CROIX"},{"name":"CENTRE HOSPITALIER HENRI LABORIT","theme":"SANTE","location":[0.391622785432276,46.55304192904162],"objectId":550,"postCode":86000,"town":"POITIERS","address":"370 AVENUE JACQUES COEUR"},{"name":"EGLISE SAINT-CLEMENT","theme":"PATRIMOINE","location":[0.374748489220752,46.64939562123391],"objectId":554,"postCode":86360,"town":"CHASSENEUIL DU POITOU","address":"RUE DE L'EGLISE"},{"name":"CNED (CENTRE NATIONAL D'ENSEIGNEMENT A DISTANCE )","theme":"SCOLAIRE","location":[0.36257352473148,46.66834851694421],"objectId":92,"postCode":86360,"town":"CHASSENEUIL DU POITOU","address":"2 BOULEVARD LEONARD DE VINCI\nTELEPORT 4"},{"name":"PARC DES ECLUZELLES","theme":"ENVIRONNEMENT","location":[0.381847996652505,46.67174656459815],"objectId":94,"postCode":86360,"town":"CHASSENEUIL DU POITOU","address":"CHEMIN DES ECLUZELLES"},{"name":"LOGIPARC BEL AIR","theme":"ADMINISTRATION","location":[0.324130268983942,46.59023113532384],"objectId":96,"postCode":86000,"town":"POITIERS","address":"27 RUE EMILE ROUX"},{"name":"PARC DES EXPOSITIONS - LES ARENES","theme":"CULTURE","location":[0.373702079932495,46.58284503792126],"objectId":97,"postCode":86000,"town":"POITIERS","address":"11 RUE SALVADOR ALLENDE"},{"name":"CONSERVATOIRE A RAYONNEMENT REGIONAL","theme":"CULTURE","location":[0.343479658281766,46.5866302269256],"objectId":98,"postCode":86000,"town":"POITIERS","address":"5 RUE FRANKLIN"},{"name":"ANNEXE DES BEAUX-ARTS","theme":"SCOLAIRE","location":[0.357822179497124,46.59578536373547],"objectId":99,"postCode":86180,"town":"BUXEROLLES","address":"IMPASSE ERIC TABARLY"},{"name":"COMPLEXE SPORTIF MICHEL AMAND","theme":"SPORT","location":[0.364473753069885,46.59540793261914],"objectId":100,"postCode":86180,"town":"BUXEROLLES","address":"2 AVENUE DE LA FRATERNITE"},{"name":"MAIRIE DE QUARTIER DE BEAULIEU","theme":"ADMINISTRATION","location":[0.378441851561847,46.57440114736509],"objectId":101,"postCode":86000,"town":"POITIERS","address":"15 PLACE PHILIPPE  LE  BEL"},{"name":"MAIRIE MONTAMISE","theme":"ADMINISTRATION","location":[0.421808839796241,46.62052437697645],"objectId":103,"postCode":86360,"town":"MONTAMISE","address":"11PLACE DE LA MAIRIE"},{"name":"PALAIS DE JUSTICE","theme":"ADMINISTRATION","location":[0.342045837146313,46.583004072015186],"objectId":104,"postCode":86000,"town":"POITIERS","address":"10 PLACE ALPHONSE LE PETIT BP 527"},{"name":"HOTEL DE VILLE","theme":"ADMINISTRATION","location":[0.340972499088181,46.58013660290814],"objectId":105,"postCode":86021,"town":"POITIERS","address":"15 PLACE MARECHAL LECLERC\n - CS 10569 - POITIERS CEDEX"},{"name":"STATION EPURATION LA FOLIE","theme":"ENVIRONNEMENT","location":[0.354497126398617,46.61738930880584],"objectId":106,"postCode":86000,"town":"POITIERS","address":"1 RUE DE LA POUPINIERE"},{"name":"MAISON DU PEUPLE","theme":"CULTURE","location":[0.345632218006992,46.58134091321591],"objectId":108,"postCode":86000,"town":"POITIERS","address":"21 BIS RUE ARSENE ORILLARD"},{"name":"MAIRIE DE QUARTIER DE POITIERS OUEST","theme":"ADMINISTRATION","location":[0.32444005603226,46.59069179268613],"objectId":109,"postCode":86000,"town":"POITIERS","address":"54 RUE RIQUE AVOINE"},{"name":"MCL / LE LOCAL","theme":"CULTURE","location":[0.345920170616463,46.579230226233655],"objectId":111,"postCode":86006,"town":"POITIERS","address":"16 RUE SAINT PIERRE LE PUELLIER  BP228   POITIERS CEDEX"},{"name":"OFFICE DU TOURISME","theme":"ADMINISTRATION","location":[0.343850769852812,46.58406585158515],"objectId":112,"postCode":86009,"town":"POITIERS","address":"45 PLACE CHARLES DE GAULLE - BP 377"},{"name":"MJC ALIENOR D'AQUITAINE","theme":"ENFANCE","location":[0.366474278031224,46.589057817999915],"objectId":114,"postCode":86000,"town":"POITIERS","address":"37 RUE PIERRE DE COUBERTIN CS 10453"},{"name":"PARKING HOTEL DE VILLE","theme":"TRANSPORT_STATIONNEMENT","location":[0.338242334023167,46.57950261811279],"objectId":115,"postCode":86000,"town":"POITIERS","address":"22 RUE CARNOT"},{"name":"THEATRE ET AUDITORIUM DE POITIERS","theme":"CULTURE","location":[0.337959182933038,46.58351023772123],"objectId":116,"postCode":86000,"town":"POITIERS","address":"1 BOULEVARD DE VERDUN"},{"name":"TRIBUNAL ADMINISTRATIF","theme":"ADMINISTRATION","location":[0.336816905438651,46.57628925275711],"objectId":117,"postCode":86000,"town":"POITIERS","address":"15 RUE DE BLOSSAC"},{"name":"IRTS","theme":"SCOLAIRE","location":[0.330251835855577,46.57794872237193],"objectId":118,"postCode":86000,"town":"POITIERS","address":"1 RUE GEORGES GUYNEMER"},{"name":"RIVES DE BOIVRES","theme":"CULTURE","location":[0.272586452524093,46.577596220972886],"objectId":558,"postCode":86580,"town":"VOUNEUIL SOUS BIARD","address":"RUE DES CHATELETS"},{"name":"CRECHE SAINT EXUPERY LES LUTINS","theme":"ENFANCE","location":[0.366782164226849,46.56710275178296],"objectId":563,"postCode":86000,"town":"POITIERS","address":"9 RUE EVARISTE GALOIS"},{"name":"CRECHE DE BEAULIEU PIGEON VOLE","theme":"ENFANCE","location":[0.389216685668118,46.57279650068254],"objectId":567,"postCode":86000,"town":"POITIERS","address":"17 ALLEE D'AIGNE"},{"name":"PARC DE FONTAINE LE COMTE","theme":"ENVIRONNEMENT","location":[0.264481337758525,46.52936877895293],"objectId":2808,"postCode":86240,"town":"FONTAINE LE COMTE","address":"7 rue du parc"},{"name":"MEDIATHEQUE EUGENE AUBIN","theme":"CULTURE","location":[0.331687800728197,46.51792872510979],"objectId":2811,"postCode":86240,"town":"LIGUGE","address":"PLACE PANNONHALMA"},{"name":"JARDINS DES SENS","theme":"ENVIRONNEMENT","location":[0.424857876695887,46.621516575949464],"objectId":3128,"postCode":86360,"town":"MONTAMISE","address":"RUE DES ECOLES"},{"name":"JARDIN DE BAYOU","theme":"ENVIRONNEMENT","location":[0.332579229588023,46.544985768512156],"objectId":3132,"postCode":86280,"town":"SAINT BENOIT","address":"ROUTE DE PASSELOURDIN"},{"name":"Point Information Médiation Multi Services - MSP Saint-Eloi","theme":"ADMINISTRATION","location":[0.382972009105016,46.59001136047616],"objectId":5050,"postCode":86000,"town":"POITIERS","address":"15 AVENUE DE LA FRATERNITE"},{"name":"SQUARE DES FLAGEOLLES","theme":"ENVIRONNEMENT","location":[0.343420302197384,46.584851254170715],"objectId":9211,"postCode":86000,"town":"POITIERS","address":"Rue des Flageolles"},{"name":"SQUARE DU BON PASTEUR ","theme":"ENVIRONNEMENT","location":[0.349441907484335,46.58382050239854],"objectId":9225,"postCode":86000,"town":"POITIERS","address":"Rue des Carmes"},{"name":"SQUARE DU MARECHAL FOCH","theme":"ENVIRONNEMENT","location":[0.342101488945758,46.57755465309141],"objectId":9229,"postCode":86000,"town":"POITIERS","address":"Rue du Maréchal Foch"},{"name":"WC PUBLICS","theme":"ENVIRONNEMENT","location":[0.334266187077137,46.57493586036317],"objectId":11144,"postCode":86000,"town":"POITIERS","address":"PARC DE BLOSSAC"},{"name":"WC PUBLICS","theme":"ENVIRONNEMENT","location":[0.334505229808521,46.58332082760922],"objectId":11148,"postCode":86000,"town":"POITIERS","address":"PARKING GARE TOUMAI"},{"name":"DIRECCTE (DIRECTION REGIONALE DES ENTREPRISES, DE LA CONCURRENCE, DE LA CONSOMMATION, DU TRAVAIL ET DE L'EMPLOI)","theme":"ADMINISTRATION","location":[0.365428110384577,46.56267117633836],"objectId":536,"postCode":86280,"town":"SAINT BENOIT","address":"6 ALLEES DES ANCIENNES SERRES"},{"name":"CROUS SERVICE CENTRAL","theme":"SCOLAIRE","location":[0.345627691058376,46.58732380969487],"objectId":537,"postCode":86000,"town":"POITIERS","address":"15 RUE GUILLAUME VII LE TROUBADOUR"},{"name":"CROUS RES. PONT-ACHARD","theme":"SCOLAIRE","location":[0.332256763267003,46.580151289336925],"objectId":538,"postCode":86000,"town":"POITIERS","address":"41 BOULEVARD PONT-ACHARD"},{"name":"CROUS RES. JEANNE D'ARC","theme":"SCOLAIRE","location":[0.344452391374005,46.582084901979236],"objectId":539,"postCode":86000,"town":"POITIERS","address":"49 RUE DE LA CATHEDRALE"},{"name":"CROUS RES MICHEL FOUCAULT","theme":"SCOLAIRE","location":[0.352280816715807,46.57586597612752],"objectId":541,"postCode":86000,"town":"POITIERS","address":"12 RUE PASTEUR"},{"name":"CROUS CITE RU ROCHE D'ARGENT","theme":"SCOLAIRE","location":[0.348176548668972,46.578854644105064],"objectId":542,"postCode":86000,"town":"POITIERS","address":"1 RUE ROCHE D'ARGENT"},{"name":"CROUS CITE MARIE-CURIE","theme":"SCOLAIRE","location":[0.347392836155033,46.57044285132206],"objectId":543,"postCode":86000,"town":"POITIERS","address":"21 RUE J.R BLOCH"},{"name":"COLLEGE FRANCOIS RABELAIS","theme":"SCOLAIRE","location":[0.317359421000875,46.57765563749151],"objectId":546,"postCode":86000,"town":"POITIERS","address":"RUE SANTOS DUMONT"},{"name":"CMP HENRI LABORIT","theme":"ADMINISTRATION","location":[0.377019613091307,46.578000014097384],"objectId":547,"postCode":86000,"town":"POITIERS","address":"14 RUE GAY LUSSAC"},{"name":"CLINIQUE ST CHARLES","theme":"SANTE","location":[0.36867479172457,46.56345330644965],"objectId":548,"postCode":86000,"town":"POITIERS","address":"3 RUE PROVIDENCE"},{"name":"CLINIQUE DU FIEF DE GRIMOIRE","theme":"SANTE","location":[0.338519544755084,46.56989662227362],"objectId":549,"postCode":86000,"town":"POITIERS","address":"38 ROUTE FIEF DE GRIMOIRE"},{"name":"CENTRE D'EXAMENS DE SANTE","theme":"SANTE","location":[0.377747965783534,46.588354604378104],"objectId":551,"postCode":86000,"town":"POITIERS","address":"79 RUE ST ELOI"},{"name":"CCAS","theme":"ADMINISTRATION","location":[0.338996354998631,46.581654197974835],"objectId":552,"postCode":86000,"town":"POITIERS","address":"45 RUE DE LA MARNE"},{"name":"CAMPUS DE L'UNIVERSITE","theme":"SCOLAIRE","location":[0.381040923376976,46.569753510883686],"objectId":553,"postCode":86000,"town":"POITIERS","address":"AVENUE DU RECTEUR PINEAU"},{"name":"PLACE DE L'EGLISE","theme":"PLACE","location":[0.374962615010667,46.64959799043221],"objectId":555,"postCode":86360,"town":"CHASSENEUIL DU POITOU","address":"RUE DE L'EGLISE"},{"name":"GYMNASE RIVAUD","theme":"SPORT","location":[0.338508332937401,46.5756701901566],"objectId":556,"postCode":86000,"town":"POITIERS","address":"33 RUE HENRI BARBUSSE"},{"name":"DDASS (DIRECTION DEPARTEMENTALE AFFAIRES SANITAIRES ET SOCIALES)","theme":"ADMINISTRATION","location":[0.369324636276099,46.5765835345674],"objectId":557,"postCode":86000,"town":"POITIERS","address":"39 RUE DE BEAULIEU"},{"name":"DRAAF","theme":"ADMINISTRATION","location":[0.337012397118743,46.58267689223106],"objectId":559,"postCode":86000,"town":"POITIERS","address":"15 RUE ARTHUR RANC - CS 40537 - 86020 Poitiers cedex "},{"name":"DIRECCTE","theme":"ADMINISTRATION","location":[0.34492242009565,46.58189170679523],"objectId":560,"postCode":86000,"town":"POITIERS","address":"47 RUE DE LA CATHEDRALE"},{"name":"CRECHE LES PETITS MOUSSES","theme":"ENFANCE","location":[0.313533644700527,46.566392848247474],"objectId":562,"postCode":86000,"town":"POITIERS","address":"22 RUE DE LA JEUNESSE"},{"name":"CRECHE RENAUDOT LA MARRONNIER","theme":"ENFANCE","location":[0.338246345244199,46.58124739682555],"objectId":564,"postCode":86000,"town":"POITIERS","address":"4 RUE THEOPHASTE RENAUDOT"},{"name":"ECOLE CONDORCET","theme":"SCOLAIRE","location":[0.333736013403966,46.5907067196381],"objectId":565,"postCode":86000,"town":"POITIERS","address":"73 RUE CONDORCET"},{"name":"DECHETTERIE SAINT ELOI","theme":"ENVIRONNEMENT","location":[0.388464844839748,46.594908017234154],"objectId":566,"postCode":86000,"town":"POITIERS","address":"1 RUE EDOUARD BRANLY"},{"name":"OBSERVATOIRE REGIONAL SANTE","theme":"ADMINISTRATION","location":[0.37482125250785,46.58096260267301],"objectId":9864,"postCode":86000,"town":"POITIERS","address":"17 RUE SALVADOR ALLENDE"},{"name":"ESPE","theme":"SCOLAIRE","location":[0.383403245020366,46.56877843927296],"objectId":9849,"postCode":86000,"town":"POITIERS","address":"40, avenue du Recteur Pineau, BP 80213\n86005 Poitiers Cedex  "},{"name":"CHAMBRE DE METIERS ET DE L'ARTISANAT","theme":"ADMINISTRATION","location":[0.374193093676737,46.58100322580435],"objectId":9850,"postCode":86000,"town":"POITIERS","address":"19 RUE SALVADOR ALLENDE"},{"name":"ADIL 86 (AGENCE DEPARTEMENTALE POUR L'INFORMATION SUR LE LOGEMENT)","theme":"ADMINISTRATION","location":[0.334110744794297,46.582703787781426],"objectId":9851,"postCode":86000,"town":"POITIERS","address":"60 Boulevard du Grand Cerf "},{"name":"DREAL","theme":"ADMINISTRATION","location":[0.337162523370262,46.58251163302254],"objectId":9868,"postCode":86000,"town":"POITIERS","address":"15 rue Arthur Ranc -BP 539\n86 020 Poitiers CEDEX"},{"name":"ANAH (AGENCE NATIONALE DE L'HABITAT)","theme":"ADMINISTRATION","location":[0.36628098065525,46.56367644790076],"objectId":9869,"postCode":86000,"town":"POITIERS","address":"20, rue de la Providence - BP 80523\n86020 Poitiers Cedex "},{"name":"DRCE","theme":"ADMINISTRATION","location":[0.344769337249643,46.58191850813261],"objectId":9870,"postCode":86000,"town":"POITIERS","address":"47 RUE DE LA CATHEDRALE"},{"name":"LA POSTE (POITIERS SUD)","theme":"ADMINISTRATION","location":[0.311958056169414,46.55843432940282],"objectId":9848,"postCode":86000,"town":"POITIERS","address":"91 AVENUE DU 8 MAI 1945"},{"name":"ESPE","theme":"ADMINISTRATION","location":[0.385760190192647,46.566598138204284],"objectId":9865,"postCode":86000,"town":"POITIERS","address":"5, rue Shirin Ebadi\nTSA 71108\n86073 Poitiers Cedex 9"},{"name":"ADEME (AGENCE DE L'ENVIRONNEMENT ET DE LA MAITRISE DE L'ENERGIE)","theme":"ADMINISTRATION","location":[0.343974417978429,46.58145060356623],"objectId":9866,"postCode":86011,"town":"POITIERS","address":"60 rue Jean Jaurès - CS 90452\t\n"},{"name":"TRIBUNAL D'INSTANCE","theme":"ADMINISTRATION","location":[0.339939439126833,46.584108013504164],"objectId":9867,"postCode":86000,"town":"POITIERS","address":"21 rue Saint Louis - CS 50079"},{"name":"ARCHITECTURE (SERVICE DEPARTEMENTAL)","theme":"ADMINISTRATION","location":[0.34845671920669,46.58198879160743],"objectId":9852,"postCode":86000,"town":"POITIERS","address":"102 GRAND'RUE - BP 553\n86020 Poitiers Cedex "},{"name":"LA POSTE, CHASSENEUIL","theme":"ADMINISTRATION","location":[0.376530357960434,46.6528502155574],"objectId":9853,"postCode":86360,"town":"CHASSENEUIL DU POITOU","address":"4 RUE LECLANCHE"},{"name":"MAISON DES HABITANTS DE LA GIBAUDERIE","theme":"CULTURE","location":[0.368689949991451,46.5661494711394],"objectId":121,"postCode":86000,"town":"POITIERS","address":"111 RUE DE LA GIBAUDERIE"},{"name":"PARC DE STRUNGA","theme":"ENVIRONNEMENT","location":[0.334884579213022,46.54848871409152],"objectId":122,"postCode":86280,"town":"SAINT BENOIT","address":"AVENUE DE LORCH"},{"name":"MAIRIE DE LIGUGE","theme":"ADMINISTRATION","location":[0.330390634914323,46.51765422990687],"objectId":123,"postCode":86240,"town":"LIGUGE","address":"PLACE DU REVERAND PERE LAMBERT"},{"name":"VERGER DE TISON","theme":"ENVIRONNEMENT","location":[0.339784716957296,46.57541518756807],"objectId":124,"postCode":86000,"town":"POITIERS","address":"CHEMIN DE TISON"},{"name":"MAISON JOUTEAU TISON","theme":"ENVIRONNEMENT","location":[0.337218867192533,46.57388718899351],"objectId":126,"postCode":86000,"town":"POITIERS","address":"5 CHEMIN DE TISON"},{"name":"STADE VARENNE SAINT BENOIT","theme":"SPORT","location":[0.329597425301876,46.55969657549878],"objectId":127,"postCode":86280,"town":"SAINT BENOIT","address":"LA VARENNE"},{"name":"PARC DE BLOSSAC","theme":"ENVIRONNEMENT","location":[0.333094739017343,46.57457075306711],"objectId":129,"postCode":86000,"town":"POITIERS","address":"1 RUE LEOPOLD THEZARD"},{"name":"PISCINE DE BELLEJOUANNE","theme":"SPORT","location":[0.310905294631095,46.56525135538724],"objectId":132,"postCode":86000,"town":"POITIERS","address":"17 RUE DE LA JEUNESSE"},{"name":"SAINT BENOIT STADE CHANTEJEAU","theme":"SPORT","location":[0.316436049717107,46.54585715621917],"objectId":133,"postCode":86280,"town":"SAINT BENOIT","address":"102 ROUTE DE LIGUGE"},{"name":"LE DOYENNE FPA","theme":"SANTE","location":[0.333502965185459,46.57673388756765],"objectId":134,"postCode":86000,"town":"POITIERS","address":"6 RUE DU DOYENNE"},{"name":"Salle Omnisports Jean-Pierre GARNIER","theme":"SPORT","location":[0.385245217448105,46.59079049854806],"objectId":136,"postCode":86000,"town":"POITIERS","address":"2 rue Bailly"},{"name":"FOYER POUR PERSONNES AGEES EDITH AUGUSTIN","theme":"SANTE","location":[0.322945899192798,46.59301848669864],"objectId":137,"postCode":86000,"town":"POITIERS","address":"4 RUE HUBERT LATHAM"},{"name":"CENTRE D'INFORMATION ET D'ORIENTATION (CIO)","theme":"SCOLAIRE","location":[0.333372883105413,46.57664351518925],"objectId":138,"postCode":86000,"town":"POITIERS","address":"22 RUE DE LA TRANCHEE"},{"name":"ANCIENS COMBATTANTS ET VICTIMES DE GUERRE (DEPARTEMENT)","theme":"ADMINISTRATION","location":[0.338505412417567,46.579678769824916],"objectId":139,"postCode":86000,"town":"POITIERS","address":"14 RUE CHARLES GIDE"},{"name":"HOTEL DE POLICE","theme":"ADMINISTRATION","location":[0.338129337295222,46.581864749585684],"objectId":141,"postCode":86000,"town":"POITIERS","address":"38 RUE DE LA MARNE"},{"name":"LA POSTE, BEAULIEU","theme":"ADMINISTRATION","location":[0.376847557503929,46.57712154775682],"objectId":142,"postCode":86000,"town":"POITIERS","address":"2 RUE GAY LUSSAC"},{"name":"SALLE DE LA QUINTAINE","theme":"CULTURE","location":[0.372746179517116,46.65100186257423],"objectId":143,"postCode":86360,"town":"CHASSENEUIL DU POITOU","address":"RUE DU 8 MAI 1945"},{"name":"COMPLEXE SPORTIF DES CHATAIGNIERS","theme":"SPORT","location":[0.26483197547439,46.53199436933479],"objectId":144,"postCode":86240,"town":"FONTAINE LE COMTE","address":"12 RUE DU STADE"},{"name":"CENTRE AQUATIQUE DE LA PEPINIERE","theme":"SPORT","location":[0.364133175102212,46.594019241233276],"objectId":146,"postCode":86180,"town":"BUXEROLLES","address":"95 RUE DES DEUX COMMUNES"},{"name":"MEDIATHEQUE DE LA BLAISERIE","theme":"CULTURE","location":[0.321653582328099,46.59173146806367],"objectId":147,"postCode":86000,"town":"POITIERS","address":"RUE DES FRERES MONGOLFIER"},{"name":"CONSEIL DES PRUD'HOMMES","theme":"ADMINISTRATION","location":[0.345967304671656,46.58767299935907],"objectId":148,"postCode":86000,"town":"POITIERS","address":"15 RUE GUILLAUME VII LE TROUBADOUR"},{"name":"ECOLE DES BEAUX ARTS ET DE L'IMAGE","theme":"SCOLAIRE","location":[0.341209000932074,46.57895179096538],"objectId":149,"postCode":86000,"town":"POITIERS","address":"26 RUE JEAN ALEXANDRE"},{"name":null,"theme":null,"location":[0.306415800333277,46.62841120779011],"objectId":14968,"postCode":0,"town":null,"address":null},{"name":"CAP SUR LE VELO - TOUMAI","theme":"TRANSPORT_STATIONNEMENT","location":[0.334748535828958,46.58341242762025],"objectId":3768,"postCode":86000,"town":"POITIERS","address":"52 Boulevard du Grand Cerf"},{"name":"AUDITORIUM SAINT GERMAIN","theme":"CULTURE","location":[0.343593961128889,46.5870087696881],"objectId":6008,"postCode":86000,"town":"POITIERS","address":"5 RUE FRANKLIN"},{"name":"CONSERVATOIRE DE POITIERS - ANTENNE DES TROIS CITES","theme":"CULTURE","location":[0.342956297571467,46.5670452036068],"objectId":6009,"postCode":86000,"town":"POITIERS","address":"8 PLACE DES TROIS CITES"},{"name":"CONSERVATOIRE DE POITIERS - DEPARTEMENT MUSIQUES ACTUELLES","theme":"CULTURE","location":[0.311876213503176,46.56630634036875],"objectId":6010,"postCode":86000,"town":"POITIERS","address":"23 RUE DE LA JEUNESSE"},{"name":"ATELIERS MUSICAUX SYRINX","theme":"CULTURE","location":[0.360327829467726,46.58228653798694],"objectId":150,"postCode":86000,"town":"POITIERS","address":"51 BOULEVARD DE LA DIGUE"},{"name":"CRECHE GALIPETTE","theme":"ENFANCE","location":[0.338572169002235,46.57673389517873],"objectId":151,"postCode":86000,"town":"POITIERS","address":"7 RUE DU 125E REGIMENT D'INFANTERIE"},{"name":"FEDERATION DEPARTEMENTALE ASSOCIATION FAMILIALE RURALE","theme":"SOCIAL","location":[0.360636901839169,46.58860520947973],"objectId":153,"postCode":86000,"town":"POITIERS","address":"18 PLACE COIMBRA"},{"name":"WC PUBLICS","theme":"ENVIRONNEMENT","location":[0.350023944197184,46.56691023713141],"objectId":155,"postCode":86000,"town":"POITIERS","address":"RUE MARECHAL LYAUTEY"},{"name":"GALERIE RIVAUD ASSOCIATION ART 86","theme":"CULTURE","location":[0.338005154166035,46.575705407667726],"objectId":156,"postCode":86000,"town":"POITIERS","address":"16 PLACE HENRI BARBUSSE"},{"name":"ONISEP POITOU CHARENTES","theme":"ADMINISTRATION","location":[0.345918629039856,46.58805773717389],"objectId":157,"postCode":86000,"town":"POITIERS","address":"22 RUE GUILLAUME VII LE TROUBADOUR SITE DU RECTORAT BP615 CEDEX"},{"name":"LA POSTE BEL-AIR","theme":"ADMINISTRATION","location":[0.325461672024704,46.59006135446355],"objectId":159,"postCode":86000,"town":"POITIERS","address":"1 RUE GERARD HANSEN"},{"name":"MDPH ( MAISON DEPARTEMENTAL DES PERSONNES HANDICAPEES)","theme":"ADMINISTRATION","location":[0.369073710650579,46.57635664560886],"objectId":160,"postCode":86000,"town":"POITIERS","address":"39 RUE DE BEAULIEU"},{"name":"WC PUBLICS","theme":"ENVIRONNEMENT","location":[0.341474599991358,46.579861087900426],"objectId":161,"postCode":86000,"town":"POITIERS","address":"PLACE MARECHAL LECLERC"},{"name":"WC PUBLICS","theme":"ENVIRONNEMENT","location":[0.356622997619817,46.58947192644675],"objectId":162,"postCode":86000,"town":"POITIERS","address":"PLACE DE PROVENCE"},{"name":"PALAIS DES CONGRES","theme":"CULTURE","location":[0.364143546060386,46.660362112484975],"objectId":164,"postCode":86960,"town":"CHASSENEUIL DU POITOU","address":"TELEPORT 1 FUTUROSCOPE CEDEX"},{"name":"SALLE DES ASSOCIATIONS","theme":"CULTURE","location":[0.305358254602042,46.57758616506838],"objectId":165,"postCode":86580,"town":"BIARD","address":"25 BIS RUE DES ECOLES"},{"name":"UNIVERSITE DROIT VILLE","theme":"SCOLAIRE","location":[0.344895864791161,46.584052649325386],"objectId":166,"postCode":86000,"town":"POITIERS","address":"43 PLACE CHARLES DE GAULLE"},{"name":"DDPP - DSV - DRCCRF - DREAL","theme":"ADMINISTRATION","location":[0.36922754233358,46.561198029326185],"objectId":169,"postCode":86000,"town":"POITIERS","address":"20 RUE DE LA PROVIDENCE BP 80523 86020 POITIERS CEDEX"},{"name":"CRECHE HALTE GARDERIE \" LA RIBAMBELLE\"","theme":"ENFANCE","location":[0.311409146883101,46.62639237543412],"objectId":170,"postCode":86440,"town":"MIGNE AUXANCES","address":"14, rue du Centre"},{"name":"CESMD (CENTRE D'ETUDES SUPERIEURES DE MUSIQUE ET DE DANSE)","theme":"SCOLAIRE","location":[0.343661129315176,46.58457345749245],"objectId":171,"postCode":86000,"town":"POITIERS","address":"10 RUE TETE NOIRE"},{"name":"EGLISE DE BERUGES","theme":"PATRIMOINE","location":[0.20575839142237,46.567259449747574],"objectId":173,"postCode":86190,"town":"BERUGES","address":"PLACE DE L'EGLISE"},{"name":"BAPTISTERE SAINT-JEAN","theme":"PATRIMOINE","location":[0.348588977526612,46.5794842939823],"objectId":174,"postCode":86000,"town":"POITIERS","address":"RUE JEAN JAURES"},{"name":"9EME BATAILLON DU MATERIEL","theme":"ADMINISTRATION","location":[0.357165041239456,46.58018051735085],"objectId":175,"postCode":86000,"town":"POITIERS","address":"7 BOULEVARD DU COLONEL BARTHAL"},{"name":"ABBAYE DU PIN","theme":"PATRIMOINE","location":[0.178430923495512,46.56862195071278],"objectId":176,"postCode":86190,"town":"BERUGES","address":"LE PIN"},{"name":"STADE DU PRIEURE","theme":"SPORT","location":[0.34047198251367,46.54897530847364],"objectId":178,"postCode":86280,"town":"SAINT BENOIT","address":"BOURG DE SAINT BENOIT"},{"name":"ECOLE ELEMENTAIRE BOULOUX ","theme":"SCOLAIRE","location":[0.380215676850182,46.5742000562782],"objectId":179,"postCode":86000,"town":"POITIERS","address":"17 ALLEE DE LA VIREVOLIERE"},{"name":"AU PANIER SYMPA ","theme":"SOCIAL","location":[0.359695297439052,46.5925513277701],"objectId":180,"postCode":86000,"town":"POITIERS","address":"10 RUE DU FIEF DES HAUSSES"},{"name":"CRECHE IL ETAIT UNE FOIS","theme":"ENFANCE","location":[0.358452413445273,46.58643188696655],"objectId":325,"postCode":86000,"town":"POITIERS","address":"6 RUE DE BOURGOGNE"},{"name":"EGLISE SAINT-PORCHAIRE","theme":"PATRIMOINE","location":[0.340089792788422,46.581329361082794],"objectId":487,"postCode":86000,"town":"POITIERS","address":"47 RUE GAMBETTA"},{"name":"COLLEGE ST-STANISLAS","theme":"SCOLAIRE","location":[0.341105035632391,46.60417680107328],"objectId":545,"postCode":86000,"town":"POITIERS","address":"80 RUE DU PORTEAU"},{"name":"COMPLEXE SPORTIF JEAN PAUL GOMEZ","theme":"SPORT","location":[0.323345825137139,46.52017400103697],"objectId":1528,"postCode":86240,"town":"LIGUGE","address":"AVENUE ROBERT SCHUMANN"},{"name":"STADE MAURICE GIRAULT","theme":"SPORT","location":[0.339995124565335,46.51905733438822],"objectId":1529,"postCode":86240,"town":"LIGUGE","address":"AVENUE DE LA PLAGE"},{"name":"STADE DE LA GRENOUILLIERE","theme":"SPORT","location":[0.337100725888633,46.521257970522356],"objectId":1530,"postCode":86240,"town":"LIGUGE","address":"RUE DES JARDINS"},{"name":"CITY PARK DE BEAULIEU","theme":"SPORT","location":[0.384438150119076,46.5729973841223],"objectId":1531,"postCode":86000,"town":"POITIERS","address":"BOULEVARD RENE CASSIN"},{"name":"GYMNASE DE BEL AIR","theme":"SPORT","location":[0.324902004645471,46.58926391943415],"objectId":1532,"postCode":86000,"town":"POITIERS","address":"2 RUE DE LARNAY"},{"name":"CITY PARK DE BELLEJOUANNE","theme":"SPORT","location":[0.313441581454039,46.565651679277366],"objectId":1533,"postCode":86000,"town":"POITIERS","address":"1 RUE DE LA JEUNESSE"},{"name":"CITY PARK DE LA BLAISERIE","theme":"SPORT","location":[0.326010430085224,46.59356393530891],"objectId":1534,"postCode":86000,"town":"POITIERS","address":"17 RUE DIEUDONNE COSTES"},{"name":"GYMNASE CHARLES PERRAULT","theme":"SPORT","location":[0.353014547988713,46.58900795155658],"objectId":1535,"postCode":86000,"town":"POITIERS","address":"4 BOULEVARD DES HAUTEURS"},{"name":"GYMNASE CONDORCET","theme":"SPORT","location":[0.333242953050176,46.59025147624497],"objectId":1536,"postCode":86000,"town":"POITIERS","address":"16 AVENUE DE LA PAIX"},{"name":"CITY PARK DES COURONNERIES ","theme":"SPORT","location":[0.359621615399546,46.59137333581871],"objectId":1537,"postCode":86000,"town":"POITIERS","address":"9 RUE DE LA CLOUERE"},{"name":"CITY PARK DE LA GIBAUDERIE","theme":"SPORT","location":[0.370133646446996,46.565501502986905],"objectId":1538,"postCode":86000,"town":"POITIERS","address":"RUE DE LA GIBAUDERIE"},{"name":"GYMNASE EVARISTE GALOIS","theme":"SPORT","location":[0.368911197056996,46.56713318125219],"objectId":1539,"postCode":86000,"town":"POITIERS","address":"6 RUE EVARISTE GALOIS"},{"name":"SALLE DE SPORT DES FEUILLANTS (NON ACCESSIBLE AU PUBLIC)","theme":"SPORT","location":[0.350002882887042,46.58569487331184],"objectId":1540,"postCode":86000,"town":"POITIERS","address":"32 RUE DES FEUILLANTS"},{"name":"PLAINE DE JEUX GUILLAUME POULLE","theme":"SPORT","location":[0.315535426620024,46.570427906179],"objectId":1541,"postCode":86000,"town":"POITIERS","address":"AVENUE GUILLAUME POULLE"},{"name":"GYMNASE HENRI IV","theme":"SPORT","location":[0.343142223314291,46.578536568978336],"objectId":1542,"postCode":86000,"town":"POITIERS","address":"1 RUE LOUIS RENARD"},{"name":"PISCINE JOEL POTREAU (NON ACCESSIBLE AU PUBLIC)","theme":"SPORT","location":[0.331420171784789,46.57932699564465],"objectId":1543,"postCode":86000,"town":"POITIERS","address":"BOULEVARD PONT ACHARD"},{"name":"COMPLEXE SPORTIF JOEL POTREAU","theme":"SPORT","location":[0.331489614044701,46.57881180457492],"objectId":1848,"postCode":86000,"town":"POITIERS","address":"24 BOULEVARD PONT ACHARD"},{"name":"BOULODROME DU PROMENADE DES COURS","theme":"SPORT","location":[0.341779931551519,46.57352296534172],"objectId":1849,"postCode":86000,"town":"POITIERS","address":"PROMENADE DES COURS"},{"name":"GYMNASE LES SABLES","theme":"SPORT","location":[0.341709230378882,46.56627804041411],"objectId":1850,"postCode":86000,"town":"POITIERS","address":"18 RUE DE LA VALLEE MONNAIE"},{"name":"CITY PARK LES SABLES","theme":"SPORT","location":[0.342401518631382,46.56687850223318],"objectId":1851,"postCode":86000,"town":"POITIERS","address":"18 RUE DE LA VALLEE MONNAIE"},{"name":"CITY PARK SAINT ELOI","theme":"SPORT","location":[0.381023341682177,46.59155834978958],"objectId":1852,"postCode":86000,"town":"POITIERS","address":"1 BOULEVARD SAINT JUST"},{"name":"GYMNASE DES TERRASSES","theme":"SPORT","location":[0.352094720347777,46.573612717396784],"objectId":1853,"postCode":86000,"town":"POITIERS","address":"13 AVENUE DES TERRASSES"},{"name":"SITE D'ESCALADE DE BEAUVOIR","theme":"SPORT","location":[0.255721287358162,46.61453183350099],"objectId":1854,"postCode":86580,"town":"VOUNEUIL SOUS BIARD","address":"CHEMIN DU PETIT BEAUVOIR"},{"name":"BUREAU POLICE COURONNERIES","theme":"ADMINISTRATION","location":[0.361011806688519,46.588555053384006],"objectId":197,"postCode":86000,"town":"POITIERS","address":"20 PLACE COIMBRA"},{"name":"COTOREP (COMMISSION TECHNIQUE ORIENTATION ET RECLASSEMENT PROFESSIONNEL)","theme":"ADMINISTRATION","location":[0.374166502957746,46.57829821035259],"objectId":296,"postCode":86000,"town":"POITIERS","address":"22 RUE GAY LUSSAC"},{"name":"ECOLE ELEMENTAIRE \"PAUL ET GENEVIEVE CHAUSSEBOURG\"","theme":"SCOLAIRE","location":[0.416161741828727,46.54166550427676],"objectId":298,"postCode":86550,"town":"MIGNALOUX BEAUVOIR","address":"187 ROUTE DE LA GARE"},{"name":"CRECHE \"CALINS ET TROTTINETTE\"","theme":"ENFANCE","location":[0.416783686319377,46.540984509228856],"objectId":299,"postCode":86550,"town":"MIGNALOUX BEAUVOIR","address":"ALLEE DES ALISIERS"},{"name":"LA POSTE, MIGNALOUX","theme":"ADMINISTRATION","location":[0.414954414734189,46.541221659002],"objectId":300,"postCode":86550,"town":"MIGNALOUX BEAUVOIR","address":"CENTRE COMMERCIAL DES ALISIERS"},{"name":"CHAMBRE D'AGRICULTURE DE LA VIENNE","theme":"ADMINISTRATION","location":[0.421216228339361,46.563649353985696],"objectId":301,"postCode":86550,"town":"MIGNALOUX BEAUVOIR","address":"AGROPOLE - 2133 ROUTE DE CHAUVIGNY BP 50 001"},{"name":"SALLE POLYVALENTE BIARD","theme":"CULTURE","location":[0.306043668776991,46.57693400433427],"objectId":303,"postCode":86580,"town":"BIARD","address":"RUE DES ECOLES"},{"name":"FOYER GUILLAUME D'AQUITAINE","theme":"SANTE","location":[0.305660386911689,46.57691911967893],"objectId":304,"postCode":86580,"town":"BIARD","address":"RUE DES ECOLES"},{"name":"CENTRE DE RESSOURCES MATERNEL DE BEAUVOIR","theme":"SOCIAL","location":[0.267597297454368,46.612436728002635],"objectId":305,"postCode":86580,"town":"VOUNEUIL SOUS BIARD","address":"ALLEE DU CHATEAU DE BEAUVOIR"},{"name":"MAISON DE RETRAITE \"TAMISIERS\"","theme":"SANTE","location":[0.42103190089207,46.62291234997388],"objectId":307,"postCode":86360,"town":"MONTAMISE","address":"RUE DES TAMISIERS"},{"name":"SERVICES TECHNIQUES \"MAIRIE DE SAINT BENOIT\"","theme":"ADMINISTRATION","location":[0.323698339343828,46.55323991886361],"objectId":308,"postCode":86280,"town":"SAINT BENOIT","address":"21 RUE DE MAGNAC"},{"name":"STRUCTURE MULTI ACCUEIL LES PETITES CANAILLES","theme":"ENFANCE","location":[0.323788837701501,46.55554066102282],"objectId":309,"postCode":86280,"town":"SAINT BENOIT","address":"2 RUE DU COQ-HARDI"},{"name":"STRUCTURE MULTI ACCUEIL \"LES POLISSONS\"","theme":"ENFANCE","location":[0.364038942715776,46.56250125385767],"objectId":310,"postCode":86280,"town":"SAINT BENOIT","address":"14 ALLEE DES ANCIENNES SERRES"},{"name":"ECOLE MATERNELLE IRMA JOUENNE","theme":"SCOLAIRE","location":[0.342420746199035,46.55330131531337],"objectId":312,"postCode":86280,"town":"SAINT BENOIT","address":"55 ROUTE DE POITIERS"},{"name":"COMPLEXE SPORTIF ERMITAGE SAINT BENOIT","theme":"SPORT","location":[0.320383190333364,46.557543870992525],"objectId":313,"postCode":86280,"town":"SAINT BENOIT","address":"RUE DE L'ERMITAGE"},{"name":"ECOLE PRIMAIRE ERMITAGE","theme":"SCOLAIRE","location":[0.319888901664442,46.55772523436965],"objectId":314,"postCode":86280,"town":"SAINT BENOIT","address":"28 RUE DE L'ERMITAGE"},{"name":"ECOLE PRIVEE NOTRE-DAME ESPERANCE","theme":"SCOLAIRE","location":[0.343159560364452,46.55667058180366],"objectId":315,"postCode":86280,"town":"SAINT BENOIT","address":"46 AVENUE DU CHAMP DE LA CAILLE"},{"name":"CENTRE ANIMATION JEUNESSE","theme":"ENFANCE","location":[0.26457852466818,46.531935656214635],"objectId":317,"postCode":86240,"town":"FONTAINE LE COMTE","address":"12 RUE DU STADE"},{"name":"CENTRE DE LOISIRS","theme":"ENFANCE","location":[0.264300451138482,46.53211786514537],"objectId":318,"postCode":86240,"town":"FONTAINE LE COMTE","address":"6 BIS RUE DU STADE"},{"name":"ECOLE ELEMENTAIRE JACQUES PREVERT","theme":"SCOLAIRE","location":[0.264035283412564,46.531692464682884],"objectId":319,"postCode":86240,"town":"FONTAINE LE COMTE","address":"13 RUE DE LA FORET"},{"name":"MAISON DU TEMPS LIBRE","theme":"CULTURE","location":[0.276042895548685,46.578457017323814],"objectId":321,"postCode":86580,"town":"VOUNEUIL SOUS BIARD","address":"PARD DE LA BOIVRE - RUE DES CEDRES"},{"name":"ECOLE MATERNELLE DE MONTAMISE","theme":"SCOLAIRE","location":[0.425557133689973,46.6204102206073],"objectId":322,"postCode":86360,"town":"MONTAMISE","address":"RUE DU CLOS"},{"name":"ECOLE ELEMENTAIRE DE MONTAMISE","theme":"SCOLAIRE","location":[0.425490721244286,46.621015250049055],"objectId":323,"postCode":86360,"town":"MONTAMISE","address":"RUE DE L'ANCIEN PORCHE"},{"name":"EPICERIE TRAIT D'UNION","theme":"SOCIAL","location":[0.346083954632898,46.57936075370702],"objectId":181,"postCode":86000,"town":"POITIERS","address":"16 RUE SAINT PIERRE LE PUELLIER"},{"name":"LES QUATRES SAISONS","theme":"SOCIAL","location":[0.319782249224355,46.59314232041812],"objectId":182,"postCode":86000,"town":"POITIERS","address":"39 RUE DE L'AEROPOSTALE"},{"name":"LA BIEN LOTIE","theme":"SOCIAL","location":[0.307829732039371,46.56348059408823],"objectId":183,"postCode":86000,"town":"POITIERS","address":"15 RUE ERNEST PEROCHON"},{"name":"AEROPORT DE POITIERS-BIARD","theme":"TRANSPORT_STATIONNEMENT","location":[0.311003075772074,46.58574744049179],"objectId":186,"postCode":86580,"town":"BIARD","address":"5 RUE DU SOUS-LIEUTENANT COLLARD "},{"name":"ABBAYE NOTRE DAME","theme":"PATRIMOINE","location":[0.264452324063237,46.52708826567222],"objectId":187,"postCode":86240,"town":"FONTAINE LE COMTE","address":"15 RUE DE L'ABBAYE"},{"name":"LA POSTE, ST BENOIT","theme":"ADMINISTRATION","location":[0.341599121483672,46.549810277852494],"objectId":188,"postCode":86280,"town":"SAINT BENOIT","address":"6 PLACE DU 8 MAI 45"},{"name":"LA POSTE, NOTRE DAME","theme":"ADMINISTRATION","location":[0.345513985379056,46.58389966998468],"objectId":189,"postCode":86000,"town":"POITIERS","address":"38 RUE M. AUGOUARD"},{"name":"LA POSTE TROIS CITES","theme":"ADMINISTRATION","location":[0.343053165113074,46.567270087368435],"objectId":190,"postCode":86000,"town":"POITIERS","address":"6 PLACE DES TROIS CITES"},{"name":"POLICE (TROIS CITES)","theme":"ADMINISTRATION","location":[0.343154119076256,46.567565933931256],"objectId":191,"postCode":86000,"town":"POITIERS","address":"2 PLACE DES TROIS CITES"},{"name":"LA POSTE TROIS ROIS","theme":"ADMINISTRATION","location":[0.342573539219634,46.587296040125246],"objectId":192,"postCode":86000,"town":"POITIERS","address":"47 RUE DES TROIS ROIS"},{"name":"ENSIP","theme":"SCOLAIRE","location":[0.380179955134024,46.571076299956495],"objectId":193,"postCode":86000,"town":"POITIERS","address":"Bâtiment B1\n1 rue Marcel Doré\nTSA 41105\n86073 Poitiers Cedex 9"},{"name":"RELAIS ASSISTANTES MATERNELLES","theme":"ENFANCE","location":[0.263029307831104,46.52616696084394],"objectId":194,"postCode":86240,"town":"FONTAINE LE COMTE","address":"10 RUE DE L'ABBAYE"},{"name":"LA POSTE, COURONNERIES","theme":"ADMINISTRATION","location":[0.35972212756307,46.58869524131591],"objectId":195,"postCode":86000,"town":"POITIERS","address":"2 PLACE COIMBRA"},{"name":"MOULIN DE CHASSEIGNE","theme":"ENVIRONNEMENT","location":[0.347452918972945,46.58946923547303],"objectId":196,"postCode":86000,"town":"POITIERS","address":"BOULEVARD CHASSEIGNE"},{"name":"BIBLIOTHEQUE","theme":"CULTURE","location":[0.420960471220647,46.620397561526175],"objectId":198,"postCode":86360,"town":"MONTAMISE","address":"13 PLACE DE LA MAIRIE"},{"name":"LA POSTE, MONTAMISE","theme":"ADMINISTRATION","location":[0.421266374340919,46.62161576105536],"objectId":199,"postCode":86360,"town":"MONTAMISE","address":"8 PLACE DES TAMISIERS"},{"name":"SALLE DES SPORTS DES BIZAIS","theme":"SPORT","location":[0.362526589395112,46.602459483707],"objectId":201,"postCode":86180,"town":"BUXEROLLES","address":"AVENUE DE LA LIBERTE"},{"name":"LA POSTE, MIGNE AUXANCES","theme":"ADMINISTRATION","location":[0.311450579432984,46.62696449363026],"objectId":203,"postCode":86440,"town":"MIGNE AUXANCES","address":"7, rue du Centre"},{"name":"RELAIS ASSISTANTES MATERNELLES","theme":"ENFANCE","location":[0.358539062419504,46.58640803365559],"objectId":204,"postCode":86000,"town":"POITIERS","address":"6 RUE DE BOURGOGNE"},{"name":"ARCHITECTURE (SERVICE DEPARTEMENTAL)","theme":"ADMINISTRATION","location":[0.337103600634089,46.58254944518544],"objectId":205,"postCode":86000,"town":"POITIERS","address":"15 RUE ARTHUR RANC"},{"name":"PISCINE DE LA GANTERIE","theme":"SPORT","location":[0.368484805006076,46.5704778030242],"objectId":207,"postCode":86000,"town":"POITIERS","address":"57  RUE DE LA GANTERIE"},{"name":"EGLISE SAINT-CYPRIEN","theme":"PATRIMOINE","location":[0.343639249655238,46.56779464554294],"objectId":208,"postCode":86000,"town":"POITIERS","address":"3 RUE SAINT EXUPERY"},{"name":"CIMETIERE","theme":"ENVIRONNEMENT","location":[0.262338446785853,46.526443265379974],"objectId":209,"postCode":86240,"town":"FONTAINE LE COMTE","address":"RUE DE L'ABBAYE"},{"name":"ECOLE SAINTE RADEGONDE","theme":"SCOLAIRE","location":[0.354295969625131,46.583903378088486],"objectId":2168,"postCode":86000,"town":"POITIERS","address":"2, RUE DE MONTBERNAGE"},{"name":"CENTRE DRAMATIQUE NATIONAL","theme":"CULTURE","location":[0.328955145645116,46.575097183872344],"objectId":10808,"postCode":86000,"town":"POITIERS","address":"66 BOULEVARD PONT-ACHARD"},{"name":"Ecole élémentaire Robert Desnos","theme":"SCOLAIRE","location":[0.331092048711492,46.63377302095176],"objectId":13384,"postCode":86440,"town":"MIGNE AUXANCES","address":"96, rue de Nanteuil"},{"name":"CRECHE L'ISLE AUX ENFANTS","theme":"ENFANCE","location":[0.358460906644242,46.58636420802084],"objectId":326,"postCode":86000,"town":"POITIERS","address":"6 RUE DE BOURGOGNE"},{"name":"CRECHE COURT'ECHELLE","theme":"ENFANCE","location":[0.390265243351929,46.57372499334864],"objectId":328,"postCode":86000,"town":"POITIERS","address":"16 ALLEE D'AIGNE"},{"name":"CRECHE LES COQUELICOTS","theme":"ENFANCE","location":[0.3785261081329,46.59005062512912],"objectId":329,"postCode":86000,"town":"POITIERS","address":"9, BOULEVARD SAINT JUST"},{"name":"TRESORERIE GENERALE","theme":"ADMINISTRATION","location":[0.346372709218497,46.583693677685154],"objectId":330,"postCode":86000,"town":"POITIERS","address":"11 RUE RIFFAULT"},{"name":"ECOLE MATERNELLE MONTMIDI","theme":"SCOLAIRE","location":[0.325236050113562,46.57906542744426],"objectId":331,"postCode":86000,"town":"POITIERS","address":"3 RUE PAUL LANGEVIN"},{"name":"ECOLE TONY LAINE MATERNELLE et ELEMENTAIRE","theme":"SCOLAIRE","location":[0.341582183325435,46.5669063511484],"objectId":333,"postCode":86000,"town":"POITIERS","address":"5 AVENUE RHIN ET DANUBE"},{"name":"CENTRE D'ANIMATION ET PMI DE BEAULIEU","theme":"ENFANCE","location":[0.3831827813257,46.575109610757075],"objectId":334,"postCode":86000,"town":"POITIERS","address":"10 BOULEVARD SAVARI"},{"name":"PLAINE DE JEUX DES SABLONS","theme":"SPORT","location":[0.391661317682258,46.568163673420194],"objectId":335,"postCode":86000,"town":"POITIERS","address":"ROUTE DE CHAUVIGNY"},{"name":"PISCINE DU BOIS DE ST PIERRE","theme":"SPORT","location":[0.368732441622319,46.50700011125048],"objectId":337,"postCode":86240,"town":"SMARVES","address":"LES BOIS DE SAINT PIERRE"},{"name":"EPICERIE SOCIALE","theme":"SOCIAL","location":[0.311104951003695,46.62650947703987],"objectId":338,"postCode":86440,"town":"MIGNE AUXANCES","address":"PLACE DE L'EGLISE"},{"name":"RELAIS ASSISTANTES MATERNELLES","theme":"ENFANCE","location":[0.311273097597014,46.62615892890094],"objectId":339,"postCode":86440,"town":"MIGNE AUXANCES","address":"14, rue du Centre"},{"name":"THEATRE DE VERDURE","theme":"ENVIRONNEMENT","location":[0.376818286290289,46.65248847029321],"objectId":340,"postCode":86360,"town":"CHASSENEUIL DU POITOU","address":"10 RUE DU 11 NOVEMBRE"},{"name":"COIN JEUNES","theme":"ENFANCE","location":[0.411903102191425,46.53997959056787],"objectId":341,"postCode":86550,"town":"MIGNALOUX BEAUVOIR","address":"232 ALLEE DES MAGNALS"},{"name":"CHAPELLE DES GAILLARDS","theme":"PATRIMOINE","location":[0.344528652738247,46.58488935155416],"objectId":343,"postCode":86000,"town":"POITIERS","address":"RUE DES GAILLARDS"},{"name":"EGLISE","theme":"PATRIMOINE","location":[0.416169351955773,46.543846756560015],"objectId":344,"postCode":86550,"town":"MIGNALOUX BEAUVOIR","address":"RUE DE L'EGLISE"},{"name":"RUE DE L'EGLISE","theme":"SPORT","location":[0.417193629091653,46.54354151726689],"objectId":345,"postCode":86550,"town":"MIGNALOUX BEAUVOIR","address":"ALLEE DE LIMOGES"},{"name":"MSHS ( MAISON DES SCIENCES DE L'HOMME ET DE LA SOCIETE)","theme":"SCOLAIRE","location":[0.384900790556066,46.56930538512662],"objectId":346,"postCode":86000,"town":"POITIERS","address":"Batiment A5 - 5, RUE THEODORE LEFEBVRE - 86000 POITIERS"},{"name":"OFFICE DE TOURISME","theme":"ADMINISTRATION","location":[0.375297209534888,46.65118417736044],"objectId":349,"postCode":86360,"town":"CHASSENEUIL DU POITOU","address":"PLACE DU CENTRE"},{"name":"PARC FLORAL LA ROSERAIE","theme":"ENVIRONNEMENT","location":[0.371162821120425,46.582999013518375],"objectId":350,"postCode":86000,"town":"POITIERS","address":"RUE SALVADOR ALLENDE"},{"name":"CENTRE SOCIO CULTUREL ANNEXE BLAISERIE","theme":"CULTURE","location":[0.320043701654508,46.593006059913314],"objectId":352,"postCode":86000,"town":"POITIERS","address":"39 RUE DE L'AEROPOSTALE"},{"name":"MULTIPOLE ENFANCE SAINT ELOI","theme":"ENFANCE","location":[0.377213862479485,46.588116273262195],"objectId":353,"postCode":86000,"town":"POITIERS","address":"11 BOULEVARD SAINT JUSTE"},{"name":"LE CONFORT MODERNE","theme":"CULTURE","location":[0.359691199114615,46.57275383567803],"objectId":354,"postCode":86000,"town":"POITIERS","address":"185 RUE DU FAUBOURG DU PONT NEUF"},{"name":"OFFICE DE TOURISME; LE DORTOIR DES MOINES","theme":"CULTURE","location":[0.341253248363377,46.54916038066109],"objectId":355,"postCode":86280,"town":"SAINT BENOIT","address":"11 RUE PAUL GAUVIN"},{"name":"CENTRE ADMINISTRATIF LES COURONNERIES","theme":"ADMINISTRATION","location":[0.360118894162996,46.58864931479216],"objectId":210,"postCode":86000,"town":"POITIERS","address":"2 PLACE COIMBRA"},{"name":"EGLISE SAINTE-THERESE","theme":"PATRIMOINE","location":[0.331925949339966,46.59150510854806],"objectId":211,"postCode":86000,"town":"POITIERS","address":"RUE SAINTE THERESE"},{"name":"GYMNASE UNIVERSITAIRE 3","theme":"SPORT","location":[0.384357741939944,46.563014238032515],"objectId":212,"postCode":86000,"town":"POITIERS","address":"GU 3 - 2 ALLEE JEAN MONNET"},{"name":"PARC DE LA GIBAUDERIE","theme":"ENVIRONNEMENT","location":[0.370891077529329,46.56547125401201],"objectId":213,"postCode":86000,"town":"POITIERS","address":"RUE DE LA GIBAUDERIE"},{"name":"SQUARE DU 20ème RA","theme":"ENVIRONNEMENT","location":[0.345870724044097,46.58954741098171],"objectId":214,"postCode":86000,"town":"POITIERS","address":"DERRIERE L'EGLISE MONTIERNEUF  - 3 QUARTIERS"},{"name":"EGLISE NOTRE-DAME-LA-GRANDE","theme":"PATRIMOINE","location":[0.344043077203801,46.58321710769251],"objectId":215,"postCode":86000,"town":"POITIERS","address":"11 RUE UNIVERSITE "},{"name":"CATHEDRALE SAINT PIERRE","theme":"PATRIMOINE","location":[0.349380819805975,46.58032032062328],"objectId":216,"postCode":86000,"town":"POITIERS","address":"1 RUE SAINTE CROIX "},{"name":"MOULIN D'ANGUITARD","theme":"PATRIMOINE","location":[0.375930321771029,46.64944175822084],"objectId":218,"postCode":86360,"town":"CHASSENEUIL DU POITOU","address":"IMPASSE DU MOULIN"},{"name":"COMITE DEPARTEMENTAL DE TENNIS","theme":"SPORT","location":[0.376443782427461,46.56763615887592],"objectId":219,"postCode":86000,"town":"POITIERS","address":"101 AVENUE JACQUES COEUR"},{"name":"MAISON DE LA FORET","theme":"ENVIRONNEMENT","location":[0.490839407033148,46.6326892843141],"objectId":220,"postCode":86440,"town":"MONTAMISE","address":"LE GRAND RECOIN"},{"name":"POINT INFORMATION ENVIRONNEMENT","theme":"ADMINISTRATION","location":[0.340792353296026,46.58148787630281],"objectId":221,"postCode":86000,"town":"POITIERS","address":"8 RUE DES GRANDES ECOLES"},{"name":"JARDIN DU CLAIN NOUVEAU","theme":"ENVIRONNEMENT","location":[0.353799948390503,46.58435994586657],"objectId":223,"postCode":86000,"town":"POITIERS","address":"RUE DES QUATRES ROUES"},{"name":"STADE DU VIEUX BOURG","theme":"SPORT","location":[0.3619523208801,46.61140219147483],"objectId":224,"postCode":86180,"town":"BUXEROLLES","address":"RUE HOMERE BERNIER (PRES DE L'EGLISE)"},{"name":"JARDIN DES SENS - HOPITAL PASTEUR","theme":"ENVIRONNEMENT","location":[0.349413308555085,46.575520279364866],"objectId":225,"postCode":86000,"town":"POITIERS","address":"15 PONT SAINT CYPRIEN"},{"name":"CENTRE DE GERONTOLOGIE LOUIS PASTEUR","theme":"SANTE","location":[0.347127586953296,46.5745615613121],"objectId":226,"postCode":86000,"town":"POITIERS","address":"15 RUE DU PONT ST CYPRIEN"},{"name":"MAIRIE DE BERUGES","theme":"ADMINISTRATION","location":[0.206500002771907,46.56715785856477],"objectId":228,"postCode":86190,"town":"BERUGES","address":"1 PLACE DE L'EGLISE"},{"name":"MAIRIE DE FONTAINE-LE-COMTE","theme":"ADMINISTRATION","location":[0.266773153640633,46.534288007468895],"objectId":229,"postCode":86240,"town":"FONTAINE LE COMTE","address":"ESPLANADE DES CITOYENS"},{"name":"LYCEE PROFESSIONNEL REGIONAL LE DOLMEN","theme":"SCOLAIRE","location":[0.367342084882115,46.58006552404135],"objectId":230,"postCode":86000,"town":"POITIERS","address":"71 RUE DU DOLMEN"},{"name":"LA POSTE (DIRECTION DEPARTEMENTALE)","theme":"ADMINISTRATION","location":[0.337527711593368,46.58214456068914],"objectId":231,"postCode":86000,"town":"POITIERS","address":"16 RUE ARTHUR RANC"},{"name":"INSEE (DIRECTION REGIONALE)","theme":"ADMINISTRATION","location":[0.343612106279995,46.578275833413336],"objectId":232,"postCode":86020,"town":"POITIERS","address":"5 RUE SAINTE CATHERINE - BP 557"},{"name":"MEDIATHEQUE FRANCOIS MITTERAND","theme":"CULTURE","location":[0.342494942156016,46.584241408898485],"objectId":234,"postCode":86000,"town":"POITIERS","address":"4 RUE DE L'UNIVERSITE"},{"name":"LYCEE PROFESSIONNEL REGIONAL REAUMUR","theme":"SCOLAIRE","location":[0.370306472375759,46.58141875118865],"objectId":235,"postCode":86000,"town":"POITIERS","address":"4 RUE SALVADOR ALLENDE"},{"name":"LA POSTE, VOUNEUIL","theme":"ADMINISTRATION","location":[0.272250505763151,46.57332962622267],"objectId":237,"postCode":86580,"town":"VOUNEUIL SOUS BIARD","address":"7 PLACE DE LA MAIRIE"},{"name":"BIBLIOTHEQUE MUNICIPALE","theme":"CULTURE","location":[0.341559287858331,46.549091462454925],"objectId":356,"postCode":86280,"town":"SAINT BENOIT","address":"3 IMPASSE DU PRIEURE"},{"name":"COMPLEXE SPORTIF BERUGES","theme":"SPORT","location":[0.197262648522186,46.569002633059874],"objectId":357,"postCode":86190,"town":"BERUGES","address":"ROUTE DE VOUILLE"},{"name":"AIRE MULTISPORTS SAINT CYPRIEN","theme":"SPORT","location":[0.350240847685714,46.566865522710714],"objectId":358,"postCode":86000,"town":"POITIERS","address":"1 RUE DU MARECHAL LYAUTEY"},{"name":"SALLE DES FETES GRAND RUE","theme":"CULTURE","location":[0.288532107410914,46.538082818102964],"objectId":359,"postCode":86240,"town":"CROUTELLE","address":"9 BIS GRAND'RUE"},{"name":"CENTRE SOCIO-CULTUREL \"LA COMBERIE\"","theme":"CULTURE","location":[0.316407893941358,46.62724044991952],"objectId":360,"postCode":86440,"town":"MIGNE AUXANCES","address":"rue de Nanteuil"},{"name":"LOCAL JEUNES","theme":"ENFANCE","location":[0.206854619040627,46.567367455422676],"objectId":361,"postCode":86190,"town":"BERUGES","address":"1 RUE FRANCOIS ALBERT"},{"name":"RESTAURANT SCOLAIRE","theme":"SCOLAIRE","location":[0.304479920099934,46.57859403818125],"objectId":362,"postCode":86580,"town":"BIARD","address":"2 RUE NUNGESSER"},{"name":"CRECHE SUCE-POUCE","theme":"ENFANCE","location":[0.305193583655471,46.5781172742692],"objectId":363,"postCode":86580,"town":"BIARD","address":"29 BIS RUE DES ECOLES"},{"name":"MAISON DES ASSOCIATIONS","theme":"CULTURE","location":[0.30482625283083,46.57688760511785],"objectId":364,"postCode":86580,"town":"BIARD","address":"RUE DES ECOLES"},{"name":"CIMETIERE MUNICIPAL","theme":"ENVIRONNEMENT","location":[0.301937437974644,46.57692967023152],"objectId":366,"postCode":86580,"town":"BIARD","address":"CHEMIN DU CHILLOC"},{"name":"LA POSTE, BIARD","theme":"ADMINISTRATION","location":[0.305564038366286,46.57739119066272],"objectId":367,"postCode":86580,"town":"BIARD","address":"22 RUE DES ECOLES"},{"name":"ECOLE DENISE ET CAMILLE ALLEAUME","theme":"SCOLAIRE","location":[0.206970221233485,46.566872520271836],"objectId":368,"postCode":86190,"town":"BERUGES","address":"2 RUE FRANCOIS ALBERT"},{"name":"BANQUE DE FRANCE, SUCCURSALE","theme":"ADMINISTRATION","location":[0.342447408900155,46.58148006172832],"objectId":371,"postCode":86000,"town":"POITIERS","address":"1 RUE HENRI OUDIN"},{"name":"DES GRAVIERES POURQUOI PAS/CAPEE","theme":"SOCIAL","location":[0.341353350494245,46.56569274669361],"objectId":372,"postCode":86000,"town":"POITIERS","address":"3 RUE DES GRAVIERES"},{"name":"LA POSTE, BUXEROLLES","theme":"ADMINISTRATION","location":[0.351918404504304,46.597700032228396],"objectId":373,"postCode":86180,"town":"BUXEROLLES","address":"6 RUE HOTEL DE VILLE"},{"name":"POLICE (BEL-AIR)","theme":"ADMINISTRATION","location":[0.323958931300112,46.5901619381913],"objectId":374,"postCode":86000,"town":"POITIERS","address":"39 RUE RIQUE-AVOINE"},{"name":"OBSERVATOIRE REGIONAL DU DEFFEND","theme":"PATRIMOINE","location":[0.406991437712443,46.558511200591134],"objectId":376,"postCode":86550,"town":"MIGNALOUX BEAUVOIR","address":"443 ROUTE DU DEFEND"},{"name":"ECOLE MATERNELLE DU BOIS D'AMOUR","theme":"SCOLAIRE","location":[0.31423514739873,46.54643713644922],"objectId":377,"postCode":86280,"town":"SAINT BENOIT","address":"9 RUE DES ERABLES"},{"name":"BIBLIOTHEQUE","theme":"CULTURE","location":[0.207044141690293,46.56667425487194],"objectId":378,"postCode":86190,"town":"BERUGES","address":"2 BIS RUE DES VILLIERS"},{"name":"GYMNASE","theme":"SPORT","location":[0.304135151137382,46.576901384608355],"objectId":380,"postCode":86000,"town":"BIARD","address":"ROUTE DE BELLEVUE"},{"name":"BIBLIOTHEQUE CROUTELLE","theme":"CULTURE","location":[0.287180536828367,46.53573986589252],"objectId":381,"postCode":86240,"town":"CROUTELLE","address":"33 GRAND'RUE"},{"name":"SQUARE DE LA REPUBLIQUE","theme":"ENVIRONNEMENT","location":[0.340367874138667,46.579261689910915],"objectId":382,"postCode":86000,"town":"POITIERS","address":"RUE MAGENTA"},{"name":"MEDIATHEQUE DES COURONNERIES","theme":"CULTURE","location":[0.356500822716306,46.58916118601762],"objectId":384,"postCode":86000,"town":"POITIERS","address":"14 PLACE DE PROVENCE"},{"name":"PARC GUILLAUME POULLE","theme":"ENVIRONNEMENT","location":[0.315012552192597,46.57063145506949],"objectId":386,"postCode":86000,"town":"POITIERS","address":"AVENUE GUILLAUME POULLE"},{"name":"PARC NATUREL ET LUDIQUE DES SABLONS","theme":"ENVIRONNEMENT","location":[0.39619730190101,46.5689518381779],"objectId":387,"postCode":86550,"town":"MIGNALOUX BEAUVOIR","address":"ROUTE DE CHAUVIGNY"},{"name":"DRRT (DIRECTION REGIONALE RECHERCHE ET TECHNOLOGIE)","theme":"ADMINISTRATION","location":[0.358304546867654,46.56344360331483],"objectId":239,"postCode":86280,"town":"SAINT BENOIT","address":"1 RUE DE LA GOELETTE"},{"name":"BELLEJOUANNE CAP SUD ET COMPLEXE SPORTIF","theme":"SPORT","location":[0.312933372046523,46.565889793525784],"objectId":240,"postCode":86000,"town":"POITIERS","address":"1 RUE DE LA JEUNESSE"},{"name":"BUREAU SERVICE NATIONAL","theme":"ADMINISTRATION","location":[0.355744038593545,46.580330660897914],"objectId":241,"postCode":86000,"town":"POITIERS","address":"7 BOULEVARD CL BARTHAL"},{"name":"OBSERVATOIRE REGIONAL SANTE","theme":"ADMINISTRATION","location":[0.350618496372059,46.57574393984637],"objectId":243,"postCode":86000,"town":"POITIERS","address":"HOPITAL PASTEUR - 15 PONT SAINT-CYPRIEN"},{"name":"I.M.E PIERRE GARNIER","theme":"SCOLAIRE","location":[0.392624846646262,46.56407842564636],"objectId":245,"postCode":86550,"town":"MIGNALOUX BEAUVOIR","address":"16 ROUTE DE CHAUVIGNY"},{"name":"SCOLAIRE \"E.R.E.A ANNE FRANCK\"","theme":"SCOLAIRE","location":[0.393274841221014,46.56571587787167],"objectId":246,"postCode":86550,"town":"MIGNALOUX BEAUVOIR","address":"14  ROUTE DE CHAUVIGNY"},{"name":"Salle des Fêtes Jean FERRAT","theme":"CULTURE","location":[0.3095927484913,46.62773950300176],"objectId":247,"postCode":86440,"town":"MIGNE AUXANCES","address":"1, rue du 8 mai 1945"},{"name":"Ecole maternelle Robert Desnos","theme":"SCOLAIRE","location":[0.330747666428406,46.63353768408756],"objectId":249,"postCode":86440,"town":"MIGNE AUXANCES","address":"96, rue de Nanteuil"},{"name":"Ecoles maternelle et élémentaire de Limbre","theme":"SCOLAIRE","location":[0.280142813583016,46.62549565481319],"objectId":250,"postCode":86440,"town":"MIGNE AUXANCES","address":"6bis, rue des Chilloux"},{"name":"Ecole élémentaire Victor SCHOELCHER","theme":"SCOLAIRE","location":[0.312271556629788,46.62301336342223],"objectId":251,"postCode":86440,"town":"MIGNE AUXANCES","address":"13, rue Louis Jouvet"},{"name":"CCAS EHPAD \"Les Fougères\"","theme":"SANTE","location":[0.320473849318498,46.634432850430066],"objectId":253,"postCode":86440,"town":"MIGNE AUXANCES","address":"1, allée des Fougères"},{"name":"ECOLE MUNICIPALE DE MUSIQUE","theme":"SCOLAIRE","location":[0.311254573699412,46.627096010683175],"objectId":254,"postCode":86440,"town":"MIGNE AUXANCES","address":"5, place du 11 novembre 1918"},{"name":"SERVICES TECHNIQUES MIGNE AUXANCES","theme":"ADMINISTRATION","location":[0.31168420493024,46.62757515201775],"objectId":255,"postCode":86440,"town":"MIGNE AUXANCES","address":"5, place du 11 novembre 1918"},{"name":"ENSEMBLE SCOLAIRE ISAAC DE L'ETOILE POLE LYCEE GENERAL","theme":"SCOLAIRE","location":[0.339502499117012,46.60171676562762],"objectId":256,"postCode":86000,"town":"POITIERS","address":"62 rue du Porteau - CS 70019 - 86001 POITIERS CEDEX"},{"name":"EGLISE DE MONTAMISE","theme":"PATRIMOINE","location":[0.423095913670593,46.621309176754266],"objectId":258,"postCode":86360,"town":"MONTAMISE","address":"RUE DE L'EGLISE"},{"name":"ESPACE VERT DES GRILLONS","theme":"ENVIRONNEMENT","location":[0.36234305268785,46.60536491916209],"objectId":259,"postCode":86180,"town":"BUXEROLLES","address":"PLACE DES GRILLONS"},{"name":"ESPACE VERT DES ROSSIGNOLS","theme":"ENVIRONNEMENT","location":[0.369688329281649,46.59199968008872],"objectId":260,"postCode":86180,"town":"BUXEROLLES","address":"RUE DES ROSSIGNOLS"},{"name":"ESPACE VERT DE L'ALIZE","theme":"ENVIRONNEMENT","location":[0.357241390945875,46.609884651936795],"objectId":261,"postCode":86180,"town":"BUXEROLLES","address":"RUE DE L'ALIZE"},{"name":"Gymnase","theme":"SPORT","location":[0.309482855479725,46.62077753767653],"objectId":263,"postCode":86440,"town":"MIGNE AUXANCES","address":"rue de Poitiers"},{"name":"C.L.S.H","theme":"ENFANCE","location":[0.411919054334538,46.54024255951003],"objectId":264,"postCode":86550,"town":"MIGNALOUX BEAUVOIR","address":"232 ALLEE DES MAGNALS"},{"name":"BIBLIOTHEQUE GENEVIEVE BERNAUDEAU","theme":"CULTURE","location":[0.414075940914523,46.541098383453516],"objectId":265,"postCode":86550,"town":"MIGNALOUX BEAUVOIR","address":"268 ROUTE DE LA GARE"},{"name":"CAMPUS DES METIERS","theme":"SCOLAIRE","location":[0.318394001556544,46.5484819507335],"objectId":267,"postCode":86281,"town":"SAINT BENOIT","address":"CMA 86 - 1 RUE DE CHANTEJEAU BP9  SAINT- BENOIT CEDEX"},{"name":"FRANCE BUSINESS SCHOOL","theme":"SCOLAIRE","location":[0.343611403322005,46.581302048829805],"objectId":268,"postCode":86000,"town":"POITIERS","address":"11 RUE DE L'ANCIENNE COMEDIE CS 20005 - 86001 POITIERS cedex"},{"name":"CENTRE INCENDIE SAINT ELOI","theme":"ADMINISTRATION","location":[0.378873477553464,46.58360997080699],"objectId":76,"postCode":86000,"town":"POITIERS","address":"144 ROUTE DE BIGNOUX"},{"name":"PARKING GARE TOUMAI","theme":"TRANSPORT_STATIONNEMENT","location":[0.335023265737491,46.5837638311245],"objectId":3448,"postCode":86000,"town":"POITIERS","address":"52 Boulevard du Grand Cerf"},{"name":"EGLISE SAINT MARC","theme":"PATRIMOINE","location":[0.305958309306809,46.57729365506394],"objectId":388,"postCode":86580,"town":"BIARD","address":"RUE DES ECOLES"},{"name":"STADE DE FOOTBALL","theme":"SPORT","location":[0.303413622827608,46.5780758647783],"objectId":389,"postCode":86580,"town":"BIARD","address":"ALLEE DU STADE"},{"name":"PARC MOZART","theme":"ENVIRONNEMENT","location":[0.349519733765385,46.59072369715836],"objectId":390,"postCode":86000,"town":"POITIERS","address":"CHEMIN DES CRETES"},{"name":"GOLF","theme":"SPORT","location":[0.425896081602036,46.5302171879455],"objectId":391,"postCode":86550,"town":"MIGNALOUX BEAUVOIR","address":"635 ROUTE DE BEAUVOIR"},{"name":"STADE DE LA CAP","theme":"SPORT","location":[0.413728872108899,46.53848378698716],"objectId":392,"postCode":86550,"town":"MIGNALOUX BEAUVOIR","address":"436 ROUTE DE LA GARE"},{"name":"PARC SAINT-ELOI","theme":"ENVIRONNEMENT","location":[0.381502021001613,46.58976001634057],"objectId":393,"postCode":86000,"town":"POITIERS","address":"AVENUE DE LA FRATERNITE"},{"name":"PLAINE DE JEUX DE LA BLAISERIE","theme":"ENVIRONNEMENT","location":[0.322667143154547,46.59136742386769],"objectId":394,"postCode":86000,"town":"POITIERS","address":"RUE DES FRERES MORANE"},{"name":"JARDIN DU TIERS ETAT","theme":"ENVIRONNEMENT","location":[0.376820314579879,46.58576445680095],"objectId":395,"postCode":86000,"town":"POITIERS","address":"RUE VOLTAIRE"},{"name":"LYCEE ALIENOR D'AQUITAINE","theme":"SCOLAIRE","location":[0.366111668036072,46.58838434111024],"objectId":396,"postCode":86034,"town":"POITIERS","address":"41 RUE PIERRE DE COUBERTIN POITIERS CEDEX"},{"name":"LUDOTHEQUE","theme":"CULTURE","location":[0.358508357228888,46.586895504258656],"objectId":397,"postCode":86000,"town":"POITIERS","address":"4 RUE DE BOURGOGNE"},{"name":"DRAC (DIRECTION REGIONALE AFFAIRES CULTURELLES)","theme":"ADMINISTRATION","location":[0.3484712836276,46.582096722160095],"objectId":398,"postCode":86000,"town":"POITIERS","address":"102 GRAND'RUE"},{"name":"CONSEIL REGIONAL DU POITOU-CHARENTES","theme":"ADMINISTRATION","location":[0.342743722445199,46.5808472714316],"objectId":399,"postCode":86021,"town":"POITIERS","address":"15 RUE DE L'ANCIENNE COMEDIE"},{"name":"DGAS","theme":"ADMINISTRATION","location":[0.368655979056172,46.57602626687106],"objectId":400,"postCode":86000,"town":"POITIERS","address":"39 RUE DE BEAULIEU"},{"name":"CRAMCO (CAISSE REGIONALE D'ASSURANCE MALADIE CENTRE OUEST)","theme":"ADMINISTRATION","location":[0.366111445539279,46.56264028753152],"objectId":403,"postCode":86280,"town":"SAINT BENOIT","address":"2 RUE DES ANCIENNES SERRES ROUTE DE NOUAILLE"},{"name":"Canopé académique de Poitiers","theme":"SCOLAIRE","location":[0.344319559853394,46.57829848383513],"objectId":404,"postCode":86000,"town":"POITIERS","address":"6 RUE SAINTE CATHERINE  86034 POITIERS"},{"name":"CRIJ (CENTRE REGIONAL INFORMATION JEUNESSE)","theme":"ADMINISTRATION","location":[0.339576406803146,46.58145014320623],"objectId":405,"postCode":86000,"town":"POITIERS","address":"64 RUE GAMBETTA"},{"name":"COLLEGE DU JARDIN DES PLANTES","theme":"SCOLAIRE","location":[0.347001111163981,46.58851278631427],"objectId":406,"postCode":86000,"town":"POITIERS","address":"46 BOULEVARD CHASSEIGNE"},{"name":"COLLEGE DE LA PROVIDENCE","theme":"SCOLAIRE","location":[0.341082434772427,46.58535722091656],"objectId":408,"postCode":86000,"town":"POITIERS","address":"22 RUE RENE DESCARTES"},{"name":"SERVICES FISCAUX (DIRECTION DÉPARTEMENTALE)","theme":"ADMINISTRATION","location":[0.34021566992823,46.583989276609245],"objectId":410,"postCode":86000,"town":"POITIERS","address":"8 RUE SAINT LOUIS - BP 533"},{"name":"SCIENCES PO","theme":"SCOLAIRE","location":[0.343895681478624,46.584274546362515],"objectId":411,"postCode":86000,"town":"POITIERS","address":"1ER CYCLE IBERO-AMERICAIN - HOTEL CHABOUREAU 49 PLACE MARECHAL LECLERC"},{"name":"COLLEGE CAMILLE GUERIN","theme":"SCOLAIRE","location":[0.367035242158376,46.5693536496689],"objectId":412,"postCode":86000,"town":"POITIERS","address":"60 RUE GANTERIE"},{"name":"MAIRIE DE VOUNEUIL SOUS BIARD","theme":"ADMINISTRATION","location":[0.272856016195431,46.5734932129808],"objectId":413,"postCode":86580,"town":"VOUNEUIL SOUS BIARD","address":"1 PLACE DE MORETTA"},{"name":"STADE ARCHES VOUNEUIL SOUS BIARD","theme":"SPORT","location":[0.277788058407883,46.60771548489549],"objectId":415,"postCode":86580,"town":"VOUNEUIL SOUS BIARD","address":"POUZIOUX"},{"name":"LYCEE PROFESSIONNEL REGIONAL DU BATIMENT AUGUSTE PERRET","theme":"SCOLAIRE","location":[0.332855808319656,46.59709986177623],"objectId":269,"postCode":86000,"town":"POITIERS","address":"46 RUE DE LA BUGELLERIE"},{"name":"HOTEL DES IMPOTS","theme":"ADMINISTRATION","location":[0.360775576308714,46.58784236709615],"objectId":270,"postCode":86000,"town":"POITIERS","address":"15 RUE DE SLOVENIE"},{"name":"PREFECTURE DE LA VIENNE","theme":"ADMINISTRATION","location":[0.334995842995935,46.58073994058826],"objectId":271,"postCode":86000,"town":"POITIERS","address":"7 PLACE ARISTIDE BRIAND"},{"name":"CPAM (CAISSE PRIMAIRE D'ASSURANCE MALADIE DE LA VIENNE) - SECURITE SOCIALE","theme":"ADMINISTRATION","location":[0.366576497676668,46.58255054259402],"objectId":273,"postCode":86041,"town":"POITIERS","address":"41 RUE DU TOUFFENET CEDEX 9"},{"name":"CAF (CAISSE D'ALLOCATIONS FAMILIALES)","theme":"SOCIAL","location":[0.366237377681321,46.58255782042232],"objectId":274,"postCode":86000,"town":"POITIERS","address":"41 RUE DU TOUFFENET"},{"name":"MISSION LOCALE D'INSERTION","theme":"SOCIAL","location":[0.349119379261115,46.58430686610909],"objectId":275,"postCode":86000,"town":"POITIERS","address":"ESPACE JEAN-FRANCOIS ROBIN - 30 RUE DES FEUILLANTS"},{"name":"COLLEGE JULES VERNE","theme":"SCOLAIRE","location":[0.356932714999255,46.59566279187648],"objectId":277,"postCode":86180,"town":"BUXEROLLES","address":"2 ALLEE ERIC TABARLY"},{"name":"MAIRIE DE BIARD","theme":"ADMINISTRATION","location":[0.305367306792833,46.57712927548119],"objectId":278,"postCode":86580,"town":"BIARD","address":"21 RUE DES ECOLES"},{"name":"LYCEE SAINT-JACQUES DE COMPOSTELLE","theme":"SCOLAIRE","location":[0.382464382504438,46.585878769404204],"objectId":279,"postCode":86000,"town":"POITIERS","address":"2 RUE DE LA REVOLUTION"},{"name":"LES HALLES DU MARCHE NOTRE DAME ","theme":"ENVIRONNEMENT","location":[0.344212057084686,46.58381369245985],"objectId":280,"postCode":86000,"town":"POITIERS","address":"RUE DU MARCHE NOTRE DAME"},{"name":"MARCHE DU SQUARE DE LA REPUBLIQUE","theme":"ENVIRONNEMENT","location":[0.340235130277731,46.57928850765581],"objectId":281,"postCode":86000,"town":"POITIERS","address":"SQUARE DE LA REPUBLIQUE"},{"name":"MARCHE DES COURONNERIES","theme":"ENVIRONNEMENT","location":[0.358197049491387,46.58938983957365],"objectId":283,"postCode":86000,"town":"POITIERS","address":"PLACE DE PROVENCE"},{"name":"MARCHE DE BELLEJOUANNE","theme":"ENVIRONNEMENT","location":[0.31196170769696,46.565771935858805],"objectId":284,"postCode":86000,"town":"POITIERS","address":"RUE DE LA JEUNESSE"},{"name":"MARCHE SAINT CYPRIEN","theme":"ENVIRONNEMENT","location":[0.349405228735622,46.56573284676488],"objectId":285,"postCode":86000,"town":"POITIERS","address":"PLACE DE FRANCE"},{"name":"MARCHE DE BERUGES","theme":"ENVIRONNEMENT","location":[0.206348098126211,46.56744618724978],"objectId":286,"postCode":86190,"town":"BERUGES","address":"PLACE DE L'EGLISE"},{"name":"MARCHE DE CHASSENEUIL DU POITOU","theme":"ENVIRONNEMENT","location":[0.374853828108043,46.651300509642674],"objectId":288,"postCode":86360,"town":"CHASSENEUIL DU POITOU","address":"PLACE DU CENTRE"},{"name":"MARCHE DE FONTAINE LE COMTE","theme":"ENVIRONNEMENT","location":[0.262020216262439,46.53120471260553],"objectId":289,"postCode":86240,"town":"FONTAINE LE COMTE","address":"PLACE CHARLES DE GAULLE"},{"name":"MARCHE DE MIGNALOUX BEAUVOIR","theme":"ENVIRONNEMENT","location":[0.414197234071569,46.541441239439834],"objectId":290,"postCode":86550,"town":"MIGNALOUX BEAUVOIR","address":"ALLEE DES MAGNALS"},{"name":"MARCHE DE MONTAMISE","theme":"ENVIRONNEMENT","location":[0.421885255310444,46.62064868878986],"objectId":292,"postCode":86360,"town":"MONTAMISE","address":"Place de la mairie"},{"name":"MARCHE DE ST BENOIT","theme":"ENVIRONNEMENT","location":[0.341755548116973,46.5497015057479],"objectId":293,"postCode":86280,"town":"SAINT BENOIT","address":"PLACE DU 8 MAI 1945"},{"name":"MARCHE CLOS GAUTHIER","theme":"ENVIRONNEMENT","location":[0.343319674340324,46.56580664017672],"objectId":294,"postCode":86000,"town":"POITIERS","address":"PLACE LEON JOUHAUX"},{"name":"MARCHE DE BEL AIR","theme":"ENVIRONNEMENT","location":[0.323473438380839,46.59185386643849],"objectId":295,"postCode":86000,"town":"POITIERS","address":"PLACE DE LA CITE"},{"name":"ECOLE DU BOIS RENARD","theme":"SCOLAIRE","location":[0.322360877788005,46.519960450166344],"objectId":2809,"postCode":86240,"town":"LIGUGE","address":"AVENUE ROBERT SCHUMAN"},{"name":"WC PUBLICS","theme":"ENVIRONNEMENT","location":[0.331132427870931,46.57379782959995],"objectId":11128,"postCode":86000,"town":"POITIERS","address":"PARC DE BLOSSAC"},{"name":"WC PUBLICS","theme":"ENVIRONNEMENT","location":[0.337600635256131,46.583758374021805],"objectId":11129,"postCode":86000,"town":"POITIERS","address":"PARKING DU TAP"},{"name":"WC PUBLICS","theme":"ENVIRONNEMENT","location":[0.344293132863561,46.583472406025905],"objectId":11130,"postCode":86000,"town":"POITIERS","address":"PARKING NOTRE DAME"},{"name":"WC PUBLICS","theme":"ENVIRONNEMENT","location":[0.352766746302334,46.58122072689589],"objectId":11131,"postCode":86000,"town":"POITIERS","address":null},{"name":"WC PUBLICS","theme":"ENVIRONNEMENT","location":[0.348173880967477,46.58740123641001],"objectId":11132,"postCode":86000,"town":"POITIERS","address":"JARDIN DES PLANTES"},{"name":"WC PUBLICS","theme":"ENVIRONNEMENT","location":[0.349527000062418,46.588955999877406],"objectId":11133,"postCode":86000,"town":"POITIERS","address":null},{"name":"BOULODROME PIERRE DE COUBERTIN","theme":"SPORT","location":[0.364873339621874,46.589270192532204],"objectId":416,"postCode":86000,"town":"POITIERS","address":"RUE DE PIERRE DE COUBERTIN"},{"name":"CONSEIL DEPARTEMENTAL DE LA VIENNE","theme":"ADMINISTRATION","location":[0.335633669508706,46.58149598513892],"objectId":417,"postCode":86000,"town":"POITIERS","address":"PLACE ARISTIDE BRIAND"},{"name":"ECOLE MARCEL PAGNOL MATERNELLE et ELEMENTAIRE","theme":"SCOLAIRE","location":[0.312161318517322,46.56662541152452],"objectId":418,"postCode":86000,"town":"POITIERS","address":"25 RUE DE LA JEUNESSE"},{"name":"COMPLEXE SPORTIF DE VOUNEUIL SOUS BIARD","theme":"SPORT","location":[0.274873470383511,46.578274750704],"objectId":419,"postCode":86580,"town":"VOUNEUIL SOUS BIARD","address":"RUE DES CEDRES"},{"name":"CRECHE MONTAM'TAM","theme":"ENFANCE","location":[0.420388723226575,46.62229347181553],"objectId":420,"postCode":86360,"town":"MONTAMISE","address":"RUE DE CEDRE"},{"name":"CIDF (CENTRE D'INFORMATION DES DROITS DES FEMMES)","theme":"SOCIAL","location":[0.355745267890014,46.589407065977255],"objectId":421,"postCode":86000,"town":"POITIERS","address":"2 AVENUE ROBERT SCHUMAN"},{"name":"DECHETTERIE SAINT NICOLAS","theme":"ENVIRONNEMENT","location":[0.308184649362075,46.60563130287636],"objectId":422,"postCode":86440,"town":"MIGNE AUXANCES","address":"ROUTE DE PARTHENAY"},{"name":"EPICERIE POM'CASSIS","theme":"SOCIAL","location":[0.342249070150786,46.56801486802811],"objectId":423,"postCode":86000,"town":"POITIERS","address":"12 RUE RHIN ET DANUBE"},{"name":"SECOUR POPULAIRE","theme":"SOCIAL","location":[0.358759040103181,46.586215581368286],"objectId":424,"postCode":86000,"town":"POITIERS","address":"6 BIS RUE DE BOURGOGNE"},{"name":"COMPLEXE SPORTIF DE MIGNALOUX BEAUVOIR","theme":"SPORT","location":[0.414246977738226,46.539386395992054],"objectId":426,"postCode":86550,"town":"MIGNALOUX BEAUVOIR","address":"436 ROUTE DE LA GARE"},{"name":"MAISON DE RETRAITE \"LES JARDINS DE L'OREE DU BOIS\"","theme":"SANTE","location":[0.403306549614528,46.54201837868408],"objectId":427,"postCode":86550,"town":"MIGNALOUX BEAUVOIR","address":"200 RUE TINO ROSSI"},{"name":"SERVICES TECHNIQUES","theme":"ADMINISTRATION","location":[0.400804126889336,46.54141445521972],"objectId":428,"postCode":86550,"town":"MIGNALOUX BEAUVOIR","address":"97 RUE DES ATELIERS"},{"name":"MEDIATHEQUE DES TROIS CITES","theme":"CULTURE","location":[0.342874770447031,46.56681588362224],"objectId":429,"postCode":86000,"town":"POITIERS","address":"12, PLACE DES TROIS CITES"},{"name":"SALLE LAWSON BODY","theme":"SPORT","location":[0.36865200609379,46.5695490012557],"objectId":430,"postCode":86000,"town":"POITIERS","address":"57 RUE DE LA GANTERIE"},{"name":"CENTRE DE CURE AMBULATOIRE EN ALCOOLOGIE","theme":"SANTE","location":[0.338524008123401,46.56543600097131],"objectId":431,"postCode":86000,"town":"POITIERS","address":"33 AVENUE RHIN ET DANUBE"},{"name":"BIBLIOTHEQUE PRES MIGNONS","theme":"CULTURE","location":[0.310742952382008,46.563100560407776],"objectId":432,"postCode":86000,"town":"POITIERS","address":"158 RUE BLAISE PASCAL"},{"name":"VALLEE MONNAIE FPA MARIE- LOUISE TROUBAT","theme":"SANTE","location":[0.342637878956036,46.56606850670435],"objectId":435,"postCode":86000,"town":"POITIERS","address":"18 RUE DE LA VALLEE MONNAIE"},{"name":"PMI (CENTRE DE PROTECTION MATERNELLE ET INFANTILE) - BEAULIEU","theme":"SOCIAL","location":[0.380780006261415,46.57582700082962],"objectId":436,"postCode":86000,"town":"POITIERS","address":"10 BOULEVARD SAVARI"},{"name":"SIEGE DE VITALIS","theme":"TRANSPORT_STATIONNEMENT","location":[0.379252272833939,46.5814049363645],"objectId":437,"postCode":86000,"town":"POITIERS","address":"9 AVENUE DE NORTHAMPTON"},{"name":"SALLE ANDRE COQUEMA","theme":"CULTURE","location":[0.331630321590863,46.555522878462014],"objectId":439,"postCode":86280,"town":"SAINT BENOIT","address":"LA VARENNE"},{"name":"TOIT DU MONDE","theme":"SOCIAL","location":[0.342117006263832,46.58754500106659],"objectId":440,"postCode":86000,"town":"POITIERS","address":"31 RUE DES TROIS ROIS"},{"name":"CINEMA CASTILLE","theme":"CULTURE","location":[0.339212546575131,46.58013643485505],"objectId":441,"postCode":86000,"town":"POITIERS","address":"24 PLACE DU MARECHAL LECLERC"},{"name":"SALLE COLLECTIVE SAINT ELOI","theme":"CULTURE","location":[0.378546007220063,46.58681300116314],"objectId":442,"postCode":86000,"town":"POITIERS","address":"9 BOULEVARD MARAT"},{"name":"ECOLE CLEMENT PERUCHON","theme":"SCOLAIRE","location":[0.32758145716334,46.51667511086594],"objectId":2810,"postCode":86240,"town":"LIGUGE","address":"22 RUE CLEMENT PERUCHON"},{"name":"PARC DE LIGUGE","theme":"ENVIRONNEMENT","location":[0.276470622740383,46.513372014636374],"objectId":2812,"postCode":86240,"town":"LIGUGE","address":"ALLEE DE LA REYNIERE"},{"name":"JARDIN BOTANIQUE UNIVERSITAIRE","theme":"ENVIRONNEMENT","location":[0.408173548026632,46.557651419021155],"objectId":2813,"postCode":86550,"town":"MIGNALOUX BEAUVOIR","address":"ROUTE DU DEFFEND"},{"name":"Le Pré Sec","theme":"ENVIRONNEMENT","location":[0.338244154192883,46.634331242896074],"objectId":2814,"postCode":86440,"town":"MIGNE AUXANCES","address":"Rue de l'Abreuvoir et rue du Petit Bois"},{"name":"LES JARDINS DE COOKHAM","theme":"ENVIRONNEMENT","location":[0.339371788400944,46.54957560339891],"objectId":3129,"postCode":86281,"town":"SAINT BENOIT","address":"AVENUE DE LORCH"},{"name":"PARC DU GRAVION","theme":"ENVIRONNEMENT","location":[0.343453330843982,46.552824062817066],"objectId":3130,"postCode":86281,"town":"SAINT BENOIT","address":"RUE DU SQUARE"},{"name":"PARC SAINT NICOLAS DE QUEBEC","theme":"ENVIRONNEMENT","location":[0.337049059669248,46.54916486612865],"objectId":3131,"postCode":86280,"town":"SAINT BENOIT","address":"AVENUE DE LA GARE"},{"name":"GROUPE SCOLAIRE JACQUES YVES COUSTEAU","theme":"SCOLAIRE","location":[0.273954487041169,46.60602486066605],"objectId":3133,"postCode":86580,"town":"VOUNEUIL SOUS BIARD","address":"74 RUE FIRMIN PETIT"},{"name":"CAP SUR LE VELO - CAMPUS","theme":"TRANSPORT_STATIONNEMENT","location":[0.383341936930243,46.56572347493767],"objectId":4088,"postCode":86000,"town":"POITIERS","address":"Rue Jacques Fort, Bâtiment B32"},{"name":"MAIRIE DE QUARTIER - MSP SAINT-ELOI","theme":"ADMINISTRATION","location":[0.382742152815676,46.589904799196056],"objectId":5048,"postCode":86000,"town":"POITIERS","address":"15 AVENUE DE LA FRATERNITE"},{"name":"Médiathèque de Saint-Eloi - MSP Saint-Eloi","theme":"CULTURE","location":[0.382876644166738,46.589958530627946],"objectId":5049,"postCode":86000,"town":"POITIERS","address":"15 AVENUE DE LA FRATERNITE"},{"name":"SQUARE SAINT-HILAIRE","theme":"ENVIRONNEMENT","location":[0.33300739582406,46.57761322308637],"objectId":9209,"postCode":86000,"town":"POITIERS","address":"Rue Saint-Hilaire"},{"name":"WC PUBLICS","theme":"ENVIRONNEMENT","location":[0.342147023172654,46.57999034306256],"objectId":6648,"postCode":86000,"town":"POITIERS","address":null},{"name":"ADIL 86 (AGENCE DEPARTEMENTALE POUR L'INFORMATION SUR LE LOGEMENT)","theme":"ADMINISTRATION","location":[0.333891606150259,46.58269662659964],"objectId":7305,"postCode":86000,"town":"POITIERS","address":null},{"name":"SQUARE JEANNE D'ARC","theme":"ENVIRONNEMENT","location":[0.342470544319035,46.58238929510576],"objectId":9224,"postCode":86000,"town":"POITIERS","address":"Rue des Cordeliers"},{"name":"SQUARE DE LA FONTAINE DU PONT-JOUBERT","theme":"ENVIRONNEMENT","location":[0.353866690707438,46.581073646486324],"objectId":9226,"postCode":86000,"town":"POITIERS","address":"Rue de la Croix-Rouge"},{"name":"SQUARE DU CHANOINE AIGRAIN","theme":"ENVIRONNEMENT","location":[0.352418974143141,46.57958737176465],"objectId":9227,"postCode":86000,"town":"POITIERS","address":"Boulevard du Pont-Joubert"},{"name":"SQUARE DES COLONIAUX","theme":"ENVIRONNEMENT","location":[0.336183247683217,46.583163418476815],"objectId":9228,"postCode":86000,"town":"POITIERS","address":"Boulevard de Verdun "},{"name":"SQUARE MARCEL BRUNIER","theme":"ENVIRONNEMENT","location":[0.319831894814962,46.576541976804016],"objectId":9210,"postCode":86000,"town":"POITIERS","address":"Rue de la Tourelle"},{"name":"SQUARE ROL-TANGUY","theme":"ENVIRONNEMENT","location":[0.326577026965844,46.58886375875771],"objectId":9212,"postCode":86000,"town":"POITIERS","address":"Rue Jean Mermoz"},{"name":"SQUARE DU PONT SAINT-CYPRIEN","theme":"ENVIRONNEMENT","location":[0.346255614574579,46.575036426897775],"objectId":9230,"postCode":86000,"town":"POITIERS","address":"Pont Saint-Cyprien"},{"name":"ESPACE LUDIQUE DU BREUIL MINGOT","theme":"ENVIRONNEMENT","location":[0.404235029788918,46.590203453956825],"objectId":9231,"postCode":86000,"town":"POITIERS","address":"Rue de la Girée "},{"name":"SQUARE DES DUNES","theme":"ENVIRONNEMENT","location":[0.35525482434536,46.580862031934664],"objectId":9232,"postCode":86000,"town":"POITIERS","address":"Avenue du Colonel Barthal"},{"name":"SQUARE ELIE DE FERRIERES ","theme":"ENVIRONNEMENT","location":[0.333110480723247,46.58576979293169],"objectId":9213,"postCode":86000,"town":"POITIERS","address":"Boulevard des Rocs"},{"name":"WC PUBLICS","theme":"ENVIRONNEMENT","location":[0.338059552367615,46.57583926936554],"objectId":11145,"postCode":86000,"town":"POITIERS","address":"PARKING DE BLOSSAC"}]